{"type":"FeatureCollection","features":[{"type":"Feature","geometry":{"type":"Point","coordinates":[139.551119,35.630045]},"properties":{"name":"中野島","time_nakanoshima":10,"transit_count_nakanoshima":0,"time_sunshine60":63,"transit_count_sunshine60":2}},{"type":"Feature","geometry":{"type":"Point","coordinates":[139.536065,35.633378]},"properties":{"name":"稲田堤","time_nakanoshima":16,"transit_count_nakanoshima":0,"time_sunshine60":65,"transit_count_sunshine60":2}},{"type":"Feature","geometry":{"type":"Point","coordinates":[139.569971,35.620803]},"properties":{"name":"登戸","time_nakanoshima":17,"transit_count_nakanoshima":0,"time_sunshine60":51,"transit_count_sunshine60":1}},{"type":"Feature","geometry":{"type":"Point","coordinates":[139.531843,35.634072]},"properties":{"name":"京王稲田堤","time_nakanoshima":19,"transit_count_nakanoshima":0,"time_sunshine60":62,"transit_count_sunshine60":1}},{"type":"Feature","geometry":{"type":"Point","coordinates":[139.579562,35.615408]},"properties":{"name":"宿河原","time_nakanoshima":19,"transit_count_nakanoshima":0,"time_sunshine60":63,"transit_count_sunshine60":2}},{"type":"Feature","geometry":{"type":"Point","coordinates":[139.520427,35.64182]},"properties":{"name":"矢野口","time_nakanoshima":19,"transit_count_nakanoshima":0,"time_sunshine60":67,"transit_count_sunshine60":2}},{"type":"Feature","geometry":{"type":"Point","coordinates":[139.502678,35.644236]},"properties":{"name":"稲城長沼","time_nakanoshima":21,"transit_count_nakanoshima":0,"time_sunshine60":69,"transit_count_sunshine60":2}},{"type":"Feature","geometry":{"type":"Point","coordinates":[139.593255,35.610048]},"properties":{"name":"久地","time_nakanoshima":21,"transit_count_nakanoshima":0,"time_sunshine60":61,"transit_count_sunshine60":2}},{"type":"Feature","geometry":{"type":"Point","coordinates":[139.600754,35.603521]},"properties":{"name":"津田山","time_nakanoshima":23,"transit_count_nakanoshima":0,"time_sunshine60":59,"transit_count_sunshine60":2}},{"type":"Feature","geometry":{"type":"Point","coordinates":[139.489409,35.649254]},"properties":{"name":"南多摩","time_nakanoshima":23,"transit_count_nakanoshima":0,"time_sunshine60":71,"transit_count_sunshine60":2}},{"type":"Feature","geometry":{"type":"Point","coordinates":[139.611783,35.598522]},"properties":{"name":"武蔵溝ノ口〔ＪＲ〕","time_nakanoshima":25,"transit_count_nakanoshima":0,"time_sunshine60":52,"transit_count_sunshine60":1}},{"type":"Feature","geometry":{"type":"Point","coordinates":[139.517733,35.632904]},"properties":{"name":"京王よみうりランド","time_nakanoshima":26,"transit_count_nakanoshima":0,"time_sunshine60":64,"transit_count_sunshine60":1}},{"type":"Feature","geometry":{"type":"Point","coordinates":[139.536397,35.644487]},"properties":{"name":"京王多摩川","time_nakanoshima":26,"transit_count_nakanoshima":0,"time_sunshine60":60,"transit_count_sunshine60":1}},{"type":"Feature","geometry":{"type":"Point","coordinates":[139.477069,35.666011]},"properties":{"name":"府中本町","time_nakanoshima":26,"transit_count_nakanoshima":0,"time_sunshine60":63,"transit_count_sunshine60":1}},{"type":"Feature","geometry":{"type":"Point","coordinates":[139.610504,35.599854]},"properties":{"name":"溝の口〔東急線〕","time_nakanoshima":27,"transit_count_nakanoshima":0,"time_sunshine60":50,"transit_count_sunshine60":1}},{"type":"Feature","geometry":{"type":"Point","coordinates":[139.629281,35.587413]},"properties":{"name":"武蔵新城","time_nakanoshima":27,"transit_count_nakanoshima":0,"time_sunshine60":58,"transit_count_sunshine60":2}},{"type":"Feature","geometry":{"type":"Point","coordinates":[139.573617,35.627268]},"properties":{"name":"和泉多摩川","time_nakanoshima":27,"transit_count_nakanoshima":1,"time_sunshine60":59,"transit_count_sunshine60":2}},{"type":"Feature","geometry":{"type":"Point","coordinates":[139.500179,35.636181]},"properties":{"name":"稲城","time_nakanoshima":28,"transit_count_nakanoshima":0,"time_sunshine60":66,"transit_count_sunshine60":1}},{"type":"Feature","geometry":{"type":"Point","coordinates":[139.544507,35.651958]},"properties":{"name":"調布","time_nakanoshima":28,"transit_count_nakanoshima":0,"time_sunshine60":50,"transit_count_sunshine60":1}},{"type":"Feature","geometry":{"type":"Point","coordinates":[139.56498,35.617351]},"properties":{"name":"向ヶ丘遊園","time_nakanoshima":28,"transit_count_nakanoshima":1,"time_sunshine60":52,"transit_count_sunshine60":1}},{"type":"Feature","geometry":{"type":"Point","coordinates":[139.468507,35.668483]},"properties":{"name":"分倍河原","time_nakanoshima":28,"transit_count_nakanoshima":0,"time_sunshine60":59,"transit_count_sunshine60":1}},{"type":"Feature","geometry":{"type":"Point","coordinates":[139.57695,35.631961]},"properties":{"name":"狛江","time_nakanoshima":29,"transit_count_nakanoshima":1,"time_sunshine60":58,"transit_count_sunshine60":2}},{"type":"Feature","geometry":{"type":"Point","coordinates":[139.64153,35.581022]},"properties":{"name":"武蔵中原","time_nakanoshima":29,"transit_count_nakanoshima":0,"time_sunshine60":56,"transit_count_sunshine60":2}},{"type":"Feature","geometry":{"type":"Point","coordinates":[139.551508,35.649904]},"properties":{"name":"布田","time_nakanoshima":30,"transit_count_nakanoshima":0,"time_sunshine60":60,"transit_count_sunshine60":1}},{"type":"Feature","geometry":{"type":"Point","coordinates":[139.457459,35.670899]},"properties":{"name":"西府","time_nakanoshima":30,"transit_count_nakanoshima":0,"time_sunshine60":69,"transit_count_sunshine60":2}},{"type":"Feature","geometry":{"type":"Point","coordinates":[139.57506,35.657848]},"properties":{"name":"つつじヶ丘","time_nakanoshima":31,"transit_count_nakanoshima":0,"time_sunshine60":54,"transit_count_sunshine60":1}},{"type":"Feature","geometry":{"type":"Point","coordinates":[139.558256,35.650014]},"properties":{"name":"国領","time_nakanoshima":31,"transit_count_nakanoshima":0,"time_sunshine60":59,"transit_count_sunshine60":1}},{"type":"Feature","geometry":{"type":"Point","coordinates":[139.472543,35.619238]},"properties":{"name":"若葉台","time_nakanoshima":31,"transit_count_nakanoshima":0,"time_sunshine60":69,"transit_count_sunshine60":1}},{"type":"Feature","geometry":{"type":"Point","coordinates":[139.58756,35.636739]},"properties":{"name":"喜多見","time_nakanoshima":31,"transit_count_nakanoshima":1,"time_sunshine60":56,"transit_count_sunshine60":2}},{"type":"Feature","geometry":{"type":"Point","coordinates":[139.617254,35.603271]},"properties":{"name":"高津（神奈川県）","time_nakanoshima":31,"transit_count_nakanoshima":1,"time_sunshine60":54,"transit_count_sunshine60":1}},{"type":"Feature","geometry":{"type":"Point","coordinates":[139.59892,35.640184]},"properties":{"name":"成城学園前","time_nakanoshima":31,"transit_count_nakanoshima":1,"time_sunshine60":47,"transit_count_sunshine60":1}},{"type":"Feature","geometry":{"type":"Point","coordinates":[139.542315,35.615018]},"properties":{"name":"生田（神奈川県）","time_nakanoshima":31,"transit_count_nakanoshima":1,"time_sunshine60":62,"transit_count_sunshine60":2}},{"type":"Feature","geometry":{"type":"Point","coordinates":[139.660071,35.576663]},"properties":{"name":"武蔵小杉","time_nakanoshima":31,"transit_count_nakanoshima":0,"time_sunshine60":46,"transit_count_sunshine60":1}},{"type":"Feature","geometry":{"type":"Point","coordinates":[139.566811,35.654181]},"properties":{"name":"柴崎","time_nakanoshima":32,"transit_count_nakanoshima":0,"time_sunshine60":58,"transit_count_sunshine60":1}},{"type":"Feature","geometry":{"type":"Point","coordinates":[139.605672,35.5938]},"properties":{"name":"梶が谷","time_nakanoshima":32,"transit_count_nakanoshima":1,"time_sunshine60":57,"transit_count_sunshine60":1}},{"type":"Feature","geometry":{"type":"Point","coordinates":[139.528178,35.61474]},"properties":{"name":"読売ランド前（小田急線）","time_nakanoshima":32,"transit_count_nakanoshima":1,"time_sunshine60":63,"transit_count_sunshine60":2}},{"type":"Feature","geometry":{"type":"Point","coordinates":[139.585115,35.662459]},"properties":{"name":"仙川","time_nakanoshima":33,"transit_count_nakanoshima":0,"time_sunshine60":50,"transit_count_sunshine60":1}},{"type":"Feature","geometry":{"type":"Point","coordinates":[139.667195,35.572138]},"properties":{"name":"向河原","time_nakanoshima":33,"transit_count_nakanoshima":0,"time_sunshine60":56,"transit_count_sunshine60":2}},{"type":"Feature","geometry":{"type":"Point","coordinates":[139.446709,35.681425]},"properties":{"name":"谷保","time_nakanoshima":33,"transit_count_nakanoshima":0,"time_sunshine60":72,"transit_count_sunshine60":2}},{"type":"Feature","geometry":{"type":"Point","coordinates":[139.622392,35.606966]},"properties":{"name":"二子新地","time_nakanoshima":33,"transit_count_nakanoshima":1,"time_sunshine60":52,"transit_count_sunshine60":1}},{"type":"Feature","geometry":{"type":"Point","coordinates":[139.448211,35.629986]},"properties":{"name":"京王永山","time_nakanoshima":34,"transit_count_nakanoshima":0,"time_sunshine60":69,"transit_count_sunshine60":1}},{"type":"Feature","geometry":{"type":"Point","coordinates":[139.591201,35.587161]},"properties":{"name":"宮崎台","time_nakanoshima":34,"transit_count_nakanoshima":1,"time_sunshine60":59,"transit_count_sunshine60":1}},{"type":"Feature","geometry":{"type":"Point","coordinates":[139.507513,35.60374]},"properties":{"name":"新百合ヶ丘","time_nakanoshima":34,"transit_count_nakanoshima":1,"time_sunshine60":58,"transit_count_sunshine60":1}},{"type":"Feature","geometry":{"type":"Point","coordinates":[139.626923,35.611966]},"properties":{"name":"二子玉川","time_nakanoshima":34,"transit_count_nakanoshima":1,"time_sunshine60":48,"transit_count_sunshine60":1}},{"type":"Feature","geometry":{"type":"Point","coordinates":[139.516195,35.609051]},"properties":{"name":"百合ヶ丘","time_nakanoshima":34,"transit_count_nakanoshima":1,"time_sunshine60":65,"transit_count_sunshine60":2}},{"type":"Feature","geometry":{"type":"Point","coordinates":[139.448266,35.630014]},"properties":{"name":"小田急永山","time_nakanoshima":35,"transit_count_nakanoshima":0,"time_sunshine60":70,"transit_count_sunshine60":1}},{"type":"Feature","geometry":{"type":"Point","coordinates":[139.600974,35.667959]},"properties":{"name":"千歳烏山","time_nakanoshima":35,"transit_count_nakanoshima":0,"time_sunshine60":45,"transit_count_sunshine60":1}},{"type":"Feature","geometry":{"type":"Point","coordinates":[139.609836,35.643267]},"properties":{"name":"祖師ヶ谷大蔵","time_nakanoshima":35,"transit_count_nakanoshima":1,"time_sunshine60":55,"transit_count_sunshine60":2}},{"type":"Feature","geometry":{"type":"Point","coordinates":[139.671028,35.560444]},"properties":{"name":"平間","time_nakanoshima":35,"transit_count_nakanoshima":0,"time_sunshine60":58,"transit_count_sunshine60":2}},{"type":"Feature","geometry":{"type":"Point","coordinates":[139.431998,35.68514]},"properties":{"name":"矢川","time_nakanoshima":35,"transit_count_nakanoshima":0,"time_sunshine60":71,"transit_count_sunshine60":2}},{"type":"Feature","geometry":{"type":"Point","coordinates":[139.582063,35.585106]},"properties":{"name":"宮前平","time_nakanoshima":36,"transit_count_nakanoshima":1,"time_sunshine60":61,"transit_count_sunshine60":1}},{"type":"Feature","geometry":{"type":"Point","coordinates":[139.636139,35.651072]},"properties":{"name":"経堂","time_nakanoshima":36,"transit_count_nakanoshima":1,"time_sunshine60":42,"transit_count_sunshine60":1}},{"type":"Feature","geometry":{"type":"Point","coordinates":[139.471513,35.680731]},"properties":{"name":"北府中","time_nakanoshima":36,"transit_count_nakanoshima":1,"time_sunshine60":61,"transit_count_sunshine60":1}},{"type":"Feature","geometry":{"type":"Point","coordinates":[139.424436,35.625097]},"properties":{"name":"京王多摩センター","time_nakanoshima":37,"transit_count_nakanoshima":0,"time_sunshine60":71,"transit_count_sunshine60":1}},{"type":"Feature","geometry":{"type":"Point","coordinates":[139.614529,35.670069]},"properties":{"name":"八幡山","time_nakanoshima":37,"transit_count_nakanoshima":0,"time_sunshine60":46,"transit_count_sunshine60":1}},{"type":"Feature","geometry":{"type":"Point","coordinates":[139.674925,35.551779]},"properties":{"name":"鹿島田","time_nakanoshima":37,"transit_count_nakanoshima":0,"time_sunshine60":60,"transit_count_sunshine60":2}},{"type":"Feature","geometry":{"type":"Point","coordinates":[139.42396,35.693811]},"properties":{"name":"西国立","time_nakanoshima":37,"transit_count_nakanoshima":0,"time_sunshine60":69,"transit_count_sunshine60":2}},{"type":"Feature","geometry":{"type":"Point","coordinates":[139.623724,35.647323]},"properties":{"name":"千歳船橋","time_nakanoshima":37,"transit_count_nakanoshima":1,"time_sunshine60":53,"transit_count_sunshine60":2}},{"type":"Feature","geometry":{"type":"Point","coordinates":[139.424575,35.625069]},"properties":{"name":"小田急多摩センター","time_nakanoshima":38,"transit_count_nakanoshima":0,"time_sunshine60":72,"transit_count_sunshine60":1}},{"type":"Feature","geometry":{"type":"Point","coordinates":[139.529843,35.657152]},"properties":{"name":"西調布","time_nakanoshima":38,"transit_count_nakanoshima":1,"time_sunshine60":60,"transit_count_sunshine60":2}},{"type":"Feature","geometry":{"type":"Point","coordinates":[139.457543,35.659539]},"properties":{"name":"中河原","time_nakanoshima":38,"transit_count_nakanoshima":1,"time_sunshine60":69,"transit_count_sunshine60":2}},{"type":"Feature","geometry":{"type":"Point","coordinates":[139.633724,35.626297]},"properties":{"name":"用賀","time_nakanoshima":38,"transit_count_nakanoshima":1,"time_sunshine60":47,"transit_count_sunshine60":1}},{"type":"Feature","geometry":{"type":"Point","coordinates":[139.400299,35.624457]},"properties":{"name":"京王堀之内","time_nakanoshima":39,"transit_count_nakanoshima":0,"time_sunshine60":77,"transit_count_sunshine60":1}},{"type":"Feature","geometry":{"type":"Point","coordinates":[139.573231,35.579801]},"properties":{"name":"鷺沼","time_nakanoshima":39,"transit_count_nakanoshima":1,"time_sunshine60":55,"transit_count_sunshine60":1}},{"type":"Feature","geometry":{"type":"Point","coordinates":[139.638806,35.611937]},"properties":{"name":"上野毛","time_nakanoshima":39,"transit_count_nakanoshima":1,"time_sunshine60":52,"transit_count_sunshine60":2}},{"type":"Feature","geometry":{"type":"Point","coordinates":[139.661945,35.580386]},"properties":{"name":"新丸子","time_nakanoshima":39,"transit_count_nakanoshima":1,"time_sunshine60":48,"transit_count_sunshine60":1}},{"type":"Feature","geometry":{"type":"Point","coordinates":[139.466068,35.699757]},"properties":{"name":"西国分寺","time_nakanoshima":39,"transit_count_nakanoshima":1,"time_sunshine60":56,"transit_count_sunshine60":1}},{"type":"Feature","geometry":{"type":"Point","coordinates":[139.680445,35.539253]},"properties":{"name":"矢向","time_nakanoshima":39,"transit_count_nakanoshima":0,"time_sunshine60":62,"transit_count_sunshine60":2}},{"type":"Feature","geometry":{"type":"Point","coordinates":[139.413906,35.698033]},"properties":{"name":"立川","time_nakanoshima":39,"transit_count_nakanoshima":0,"time_sunshine60":59,"transit_count_sunshine60":1}},{"type":"Feature","geometry":{"type":"Point","coordinates":[139.631639,35.667653]},"properties":{"name":"桜上水","time_nakanoshima":40,"transit_count_nakanoshima":0,"time_sunshine60":42,"transit_count_sunshine60":1}},{"type":"Feature","geometry":{"type":"Point","coordinates":[139.523676,35.660096]},"properties":{"name":"飛田給","time_nakanoshima":40,"transit_count_nakanoshima":1,"time_sunshine60":62,"transit_count_sunshine60":2}},{"type":"Feature","geometry":{"type":"Point","coordinates":[139.667556,35.661688]},"properties":{"name":"下北沢","time_nakanoshima":40,"transit_count_nakanoshima":1,"time_sunshine60":38,"transit_count_sunshine60":1}},{"type":"Feature","geometry":{"type":"Point","coordinates":[139.654224,35.564638]},"properties":{"name":"元住吉","time_nakanoshima":40,"transit_count_nakanoshima":1,"time_sunshine60":51,"transit_count_sunshine60":1}},{"type":"Feature","geometry":{"type":"Point","coordinates":[139.644278,35.631575]},"properties":{"name":"桜新町","time_nakanoshima":40,"transit_count_nakanoshima":1,"time_sunshine60":45,"transit_count_sunshine60":1}},{"type":"Feature","geometry":{"type":"Point","coordinates":[139.447016,35.650761]},"properties":{"name":"聖蹟桜ヶ丘","time_nakanoshima":40,"transit_count_nakanoshima":1,"time_sunshine60":60,"transit_count_sunshine60":1}},{"type":"Feature","geometry":{"type":"Point","coordinates":[139.647806,35.608439]},"properties":{"name":"等々力","time_nakanoshima":40,"transit_count_nakanoshima":1,"time_sunshine60":51,"transit_count_sunshine60":2}},{"type":"Feature","geometry":{"type":"Point","coordinates":[139.480429,35.672232]},"properties":{"name":"府中（東京都）","time_nakanoshima":40,"transit_count_nakanoshima":1,"time_sunshine60":55,"transit_count_sunshine60":1}},{"type":"Feature","geometry":{"type":"Point","coordinates":[139.422903,35.623959]},"properties":{"name":"多摩センター","time_nakanoshima":41,"transit_count_nakanoshima":0,"time_sunshine60":75,"transit_count_sunshine60":1}},{"type":"Feature","geometry":{"type":"Point","coordinates":[139.511677,35.664068]},"properties":{"name":"武蔵野台","time_nakanoshima":41,"transit_count_nakanoshima":1,"time_sunshine60":63,"transit_count_sunshine60":2}},{"type":"Feature","geometry":{"type":"Point","coordinates":[139.558287,35.577329]},"properties":{"name":"たまプラーザ","time_nakanoshima":41,"transit_count_nakanoshima":1,"time_sunshine60":57,"transit_count_sunshine60":1}},{"type":"Feature","geometry":{"type":"Point","coordinates":[139.684279,35.530754]},"properties":{"name":"尻手","time_nakanoshima":41,"transit_count_nakanoshima":0,"time_sunshine60":64,"transit_count_sunshine60":2}},{"type":"Feature","geometry":{"type":"Point","coordinates":[139.668722,35.589636]},"properties":{"name":"多摩川","time_nakanoshima":41,"transit_count_nakanoshima":1,"time_sunshine60":43,"transit_count_sunshine60":1}},{"type":"Feature","geometry":{"type":"Point","coordinates":[139.641355,35.666145]},"properties":{"name":"下高井戸","time_nakanoshima":42,"transit_count_nakanoshima":0,"time_sunshine60":40,"transit_count_sunshine60":1}},{"type":"Feature","geometry":{"type":"Point","coordinates":[139.379662,35.613986]},"properties":{"name":"南大沢","time_nakanoshima":42,"transit_count_nakanoshima":0,"time_sunshine60":75,"transit_count_sunshine60":1}},{"type":"Feature","geometry":{"type":"Point","coordinates":[139.553458,35.568784]},"properties":{"name":"あざみ野","time_nakanoshima":42,"transit_count_nakanoshima":1,"time_sunshine60":58,"transit_count_sunshine60":1}},{"type":"Feature","geometry":{"type":"Point","coordinates":[139.48107,35.605629]},"properties":{"name":"栗平","time_nakanoshima":42,"transit_count_nakanoshima":1,"time_sunshine60":66,"transit_count_sunshine60":1}},{"type":"Feature","geometry":{"type":"Point","coordinates":[139.668722,35.607412]},"properties":{"name":"自由が丘（東京都）","time_nakanoshima":42,"transit_count_nakanoshima":1,"time_sunshine60":40,"transit_count_sunshine60":1}},{"type":"Feature","geometry":{"type":"Point","coordinates":[139.470539,35.730975]},"properties":{"name":"新小平","time_nakanoshima":42,"transit_count_nakanoshima":1,"time_sunshine60":55,"transit_count_sunshine60":1}},{"type":"Feature","geometry":{"type":"Point","coordinates":[139.67959,35.668985]},"properties":{"name":"代々木上原","time_nakanoshima":42,"transit_count_nakanoshima":1,"time_sunshine60":36,"transit_count_sunshine60":1}},{"type":"Feature","geometry":{"type":"Point","coordinates":[139.44546,35.544279]},"properties":{"name":"町田","time_nakanoshima":42,"transit_count_nakanoshima":1,"time_sunshine60":66,"transit_count_sunshine60":1}},{"type":"Feature","geometry":{"type":"Point","coordinates":[139.653862,35.606966]},"properties":{"name":"尾山台","time_nakanoshima":42,"transit_count_nakanoshima":1,"time_sunshine60":49,"transit_count_sunshine60":2}},{"type":"Feature","geometry":{"type":"Point","coordinates":[139.431656,35.657343]},"properties":{"name":"百草園","time_nakanoshima":42,"transit_count_nakanoshima":1,"time_sunshine60":70,"transit_count_sunshine60":2}},{"type":"Feature","geometry":{"type":"Point","coordinates":[139.608279,35.670459]},"properties":{"name":"芦花公園","time_nakanoshima":43,"transit_count_nakanoshima":0,"time_sunshine60":47,"transit_count_sunshine60":1}},{"type":"Feature","geometry":{"type":"Point","coordinates":[139.502455,35.666289]},"properties":{"name":"多磨霊園","time_nakanoshima":43,"transit_count_nakanoshima":1,"time_sunshine60":65,"transit_count_sunshine60":2}},{"type":"Feature","geometry":{"type":"Point","coordinates":[139.650304,35.669292]},"properties":{"name":"明大前","time_nakanoshima":43,"transit_count_nakanoshima":0,"time_sunshine60":38,"transit_count_sunshine60":1}},{"type":"Feature","geometry":{"type":"Point","coordinates":[139.464712,35.618715]},"properties":{"name":"はるひ野","time_nakanoshima":43,"transit_count_nakanoshima":1,"time_sunshine60":72,"transit_count_sunshine60":2}},{"type":"Feature","geometry":{"type":"Point","coordinates":[139.497542,35.589409]},"properties":{"name":"柿生","time_nakanoshima":43,"transit_count_nakanoshima":1,"time_sunshine60":69,"transit_count_sunshine60":2}},{"type":"Feature","geometry":{"type":"Point","coordinates":[139.660945,35.605328]},"properties":{"name":"九品仏","time_nakanoshima":43,"transit_count_nakanoshima":1,"time_sunshine60":48,"transit_count_sunshine60":2}},{"type":"Feature","geometry":{"type":"Point","coordinates":[139.661777,35.63352]},"properties":{"name":"駒沢大学","time_nakanoshima":43,"transit_count_nakanoshima":1,"time_sunshine60":42,"transit_count_sunshine60":1}},{"type":"Feature","geometry":{"type":"Point","coordinates":[139.671722,35.643774]},"properties":{"name":"三軒茶屋","time_nakanoshima":43,"transit_count_nakanoshima":1,"time_sunshine60":40,"transit_count_sunshine60":1}},{"type":"Feature","geometry":{"type":"Point","coordinates":[139.69686,35.53142]},"properties":{"name":"川崎","time_nakanoshima":43,"transit_count_nakanoshima":0,"time_sunshine60":58,"transit_count_sunshine60":1}},{"type":"Feature","geometry":{"type":"Point","coordinates":[139.667333,35.597135]},"properties":{"name":"田園調布","time_nakanoshima":43,"transit_count_nakanoshima":1,"time_sunshine60":42,"transit_count_sunshine60":1}},{"type":"Feature","geometry":{"type":"Point","coordinates":[139.647003,35.553722]},"properties":{"name":"日吉（神奈川県）","time_nakanoshima":43,"transit_count_nakanoshima":1,"time_sunshine60":49,"transit_count_sunshine60":1}},{"type":"Feature","geometry":{"type":"Point","coordinates":[139.412676,35.696234]},"properties":{"name":"立川南","time_nakanoshima":43,"transit_count_nakanoshima":0,"time_sunshine60":63,"transit_count_sunshine60":1}},{"type":"Feature","geometry":{"type":"Point","coordinates":[139.412504,35.699353]},"properties":{"name":"立川北","time_nakanoshima":43,"transit_count_nakanoshima":0,"time_sunshine60":63,"transit_count_sunshine60":1}},{"type":"Feature","geometry":{"type":"Point","coordinates":[139.470571,35.612961]},"properties":{"name":"黒川（神奈川県）","time_nakanoshima":44,"transit_count_nakanoshima":1,"time_sunshine60":71,"transit_count_sunshine60":2}},{"type":"Feature","geometry":{"type":"Point","coordinates":[139.367386,35.602126]},"properties":{"name":"多摩境","time_nakanoshima":44,"transit_count_nakanoshima":0,"time_sunshine60":82,"transit_count_sunshine60":1}},{"type":"Feature","geometry":{"type":"Point","coordinates":[139.672249,35.603884]},"properties":{"name":"奥沢","time_nakanoshima":44,"transit_count_nakanoshima":1,"time_sunshine60":50,"transit_count_sunshine60":2}},{"type":"Feature","geometry":{"type":"Point","coordinates":[139.493125,35.600129]},"properties":{"name":"五月台","time_nakanoshima":44,"transit_count_nakanoshima":2,"time_sunshine60":68,"transit_count_sunshine60":2}},{"type":"Feature","geometry":{"type":"Point","coordinates":[139.551261,35.558469]},"properties":{"name":"江田（神奈川県）","time_nakanoshima":44,"transit_count_nakanoshima":1,"time_sunshine60":66,"transit_count_sunshine60":2}},{"type":"Feature","geometry":{"type":"Point","coordinates":[139.671501,35.551585]},"properties":{"name":"新川崎","time_nakanoshima":44,"transit_count_nakanoshima":0,"time_sunshine60":57,"transit_count_sunshine60":0}},{"type":"Feature","geometry":{"type":"Point","coordinates":[139.437521,35.531914]},"properties":{"name":"相模大野","time_nakanoshima":44,"transit_count_nakanoshima":1,"time_sunshine60":68,"transit_count_sunshine60":1}},{"type":"Feature","geometry":{"type":"Point","coordinates":[139.495344,35.668789]},"properties":{"name":"東府中","time_nakanoshima":44,"transit_count_nakanoshima":1,"time_sunshine60":67,"transit_count_sunshine60":2}},{"type":"Feature","geometry":{"type":"Point","coordinates":[139.411382,35.61632]},"properties":{"name":"唐木田","time_nakanoshima":45,"transit_count_nakanoshima":1,"time_sunshine60":75,"transit_count_sunshine60":1}},{"type":"Feature","geometry":{"type":"Point","coordinates":[139.413047,35.662342]},"properties":{"name":"高幡不動","time_nakanoshima":45,"transit_count_nakanoshima":1,"time_sunshine60":63,"transit_count_sunshine60":1}},{"type":"Feature","geometry":{"type":"Point","coordinates":[139.647554,35.653683]},"properties":{"name":"豪徳寺","time_nakanoshima":45,"transit_count_nakanoshima":1,"time_sunshine60":48,"transit_count_sunshine60":1}},{"type":"Feature","geometry":{"type":"Point","coordinates":[139.68597,35.607384]},"properties":{"name":"大岡山","time_nakanoshima":45,"transit_count_nakanoshima":1,"time_sunshine60":48,"transit_count_sunshine60":1}},{"type":"Feature","geometry":{"type":"Point","coordinates":[139.481321,35.583076]},"properties":{"name":"鶴川","time_nakanoshima":45,"transit_count_nakanoshima":1,"time_sunshine60":71,"transit_count_sunshine60":2}},{"type":"Feature","geometry":{"type":"Point","coordinates":[139.344305,35.594904]},"properties":{"name":"橋本（神奈川県）","time_nakanoshima":46,"transit_count_nakanoshima":0,"time_sunshine60":79,"transit_count_sunshine60":1}},{"type":"Feature","geometry":{"type":"Point","coordinates":[139.667302,35.673681]},"properties":{"name":"笹塚","time_nakanoshima":46,"transit_count_nakanoshima":0,"time_sunshine60":35,"transit_count_sunshine60":1}},{"type":"Feature","geometry":{"type":"Point","coordinates":[139.634588,35.536751]},"properties":{"name":"綱島","time_nakanoshima":46,"transit_count_nakanoshima":1,"time_sunshine60":52,"transit_count_sunshine60":1}},{"type":"Feature","geometry":{"type":"Point","coordinates":[139.480215,35.700217]},"properties":{"name":"国分寺","time_nakanoshima":46,"transit_count_nakanoshima":2,"time_sunshine60":53,"transit_count_sunshine60":1}},{"type":"Feature","geometry":{"type":"Point","coordinates":[139.446515,35.69934]},"properties":{"name":"国立","time_nakanoshima":46,"transit_count_nakanoshima":2,"time_sunshine60":58,"transit_count_sunshine60":1}},{"type":"Feature","geometry":{"type":"Point","coordinates":[139.541429,35.551442]},"properties":{"name":"市が尾","time_nakanoshima":46,"transit_count_nakanoshima":1,"time_sunshine60":68,"transit_count_sunshine60":2}},{"type":"Feature","geometry":{"type":"Point","coordinates":[139.653499,35.656017]},"properties":{"name":"梅ヶ丘","time_nakanoshima":46,"transit_count_nakanoshima":1,"time_sunshine60":47,"transit_count_sunshine60":1}},{"type":"Feature","geometry":{"type":"Point","coordinates":[139.67922,35.606411]},"properties":{"name":"緑が丘（東京都）","time_nakanoshima":46,"transit_count_nakanoshima":1,"time_sunshine60":47,"transit_count_sunshine60":2}},{"type":"Feature","geometry":{"type":"Point","coordinates":[139.623195,35.668736]},"properties":{"name":"上北沢","time_nakanoshima":47,"transit_count_nakanoshima":0,"time_sunshine60":43,"transit_count_sunshine60":1}},{"type":"Feature","geometry":{"type":"Point","coordinates":[139.646499,35.653795]},"properties":{"name":"山下（東京都）","time_nakanoshima":47,"transit_count_nakanoshima":1,"time_sunshine60":50,"transit_count_sunshine60":1}},{"type":"Feature","geometry":{"type":"Point","coordinates":[139.701293,35.659463]},"properties":{"name":"渋谷","time_nakanoshima":47,"transit_count_nakanoshima":1,"time_sunshine60":28,"transit_count_sunshine60":0}},{"type":"Feature","geometry":{"type":"Point","coordinates":[139.493452,35.778221]},"properties":{"name":"新秋津","time_nakanoshima":47,"transit_count_nakanoshima":1,"time_sunshine60":50,"transit_count_sunshine60":1}},{"type":"Feature","geometry":{"type":"Point","coordinates":[139.69984,35.689245]},"properties":{"name":"新宿","time_nakanoshima":47,"transit_count_nakanoshima":1,"time_sunshine60":20,"transit_count_sunshine60":0}},{"type":"Feature","geometry":{"type":"Point","coordinates":[139.517431,35.542859]},"properties":{"name":"青葉台","time_nakanoshima":47,"transit_count_nakanoshima":1,"time_sunshine60":63,"transit_count_sunshine60":1}},{"type":"Feature","geometry":{"type":"Point","coordinates":[139.673413,35.660266]},"properties":{"name":"池ノ上","time_nakanoshima":47,"transit_count_nakanoshima":2,"time_sunshine60":38,"transit_count_sunshine60":1}},{"type":"Feature","geometry":{"type":"Point","coordinates":[139.684552,35.650796]},"properties":{"name":"池尻大橋","time_nakanoshima":47,"transit_count_nakanoshima":1,"time_sunshine60":38,"transit_count_sunshine60":1}},{"type":"Feature","geometry":{"type":"Point","coordinates":[139.676498,35.617966]},"properties":{"name":"都立大学","time_nakanoshima":47,"transit_count_nakanoshima":1,"time_sunshine60":40,"transit_count_sunshine60":1}},{"type":"Feature","geometry":{"type":"Point","coordinates":[139.393436,35.678702]},"properties":{"name":"日野（東京都）","time_nakanoshima":47,"transit_count_nakanoshima":1,"time_sunshine60":62,"transit_count_sunshine60":1}},{"type":"Feature","geometry":{"type":"Point","coordinates":[139.422125,35.631813]},"properties":{"name":"松が谷","time_nakanoshima":48,"transit_count_nakanoshima":1,"time_sunshine60":82,"transit_count_sunshine60":2}},{"type":"Feature","geometry":{"type":"Point","coordinates":[139.702608,35.604913]},"properties":{"name":"旗の台","time_nakanoshima":48,"transit_count_nakanoshima":1,"time_sunshine60":47,"transit_count_sunshine60":1}},{"type":"Feature","geometry":{"type":"Point","coordinates":[139.6312,35.510586]},"properties":{"name":"菊名","time_nakanoshima":48,"transit_count_nakanoshima":1,"time_sunshine60":56,"transit_count_sunshine60":0}},{"type":"Feature","geometry":{"type":"Point","coordinates":[139.463129,35.563244]},"properties":{"name":"玉川学園前","time_nakanoshima":48,"transit_count_nakanoshima":1,"time_sunshine60":74,"transit_count_sunshine60":2}},{"type":"Feature","geometry":{"type":"Point","coordinates":[139.683996,35.658656]},"properties":{"name":"駒場東大前","time_nakanoshima":48,"transit_count_nakanoshima":2,"time_sunshine60":37,"transit_count_sunshine60":1}},{"type":"Feature","geometry":{"type":"Point","coordinates":[139.673083,35.582553]},"properties":{"name":"沼部","time_nakanoshima":48,"transit_count_nakanoshima":2,"time_sunshine60":50,"transit_count_sunshine60":2}},{"type":"Feature","geometry":{"type":"Point","coordinates":[139.661331,35.662571]},"properties":{"name":"新代田","time_nakanoshima":48,"transit_count_nakanoshima":2,"time_sunshine60":41,"transit_count_sunshine60":1}},{"type":"Feature","geometry":{"type":"Point","coordinates":[139.661498,35.658294]},"properties":{"name":"世田谷代田","time_nakanoshima":48,"transit_count_nakanoshima":2,"time_sunshine60":45,"transit_count_sunshine60":1}},{"type":"Feature","geometry":{"type":"Point","coordinates":[139.694414,35.610217]},"properties":{"name":"洗足","time_nakanoshima":48,"transit_count_nakanoshima":1,"time_sunshine60":47,"transit_count_sunshine60":1}},{"type":"Feature","geometry":{"type":"Point","coordinates":[139.629811,35.522281]},"properties":{"name":"大倉山（神奈川県）","time_nakanoshima":48,"transit_count_nakanoshima":1,"time_sunshine60":59,"transit_count_sunshine60":1}},{"type":"Feature","geometry":{"type":"Point","coordinates":[139.527652,35.543414]},"properties":{"name":"藤が丘（神奈川県）","time_nakanoshima":48,"transit_count_nakanoshima":1,"time_sunshine60":70,"transit_count_sunshine60":2}},{"type":"Feature","geometry":{"type":"Point","coordinates":[139.416506,35.636832]},"properties":{"name":"大塚・帝京大学","time_nakanoshima":49,"transit_count_nakanoshima":1,"time_sunshine60":83,"transit_count_sunshine60":2}},{"type":"Feature","geometry":{"type":"Point","coordinates":[139.67609,35.677026]},"properties":{"name":"幡ヶ谷","time_nakanoshima":49,"transit_count_nakanoshima":0,"time_sunshine60":35,"transit_count_sunshine60":1}},{"type":"Feature","geometry":{"type":"Point","coordinates":[139.509177,35.666123]},"properties":{"name":"白糸台","time_nakanoshima":49,"transit_count_nakanoshima":1,"time_sunshine60":62,"transit_count_sunshine60":2}},{"type":"Feature","geometry":{"type":"Point","coordinates":[139.685108,35.628521]},"properties":{"name":"学芸大学","time_nakanoshima":49,"transit_count_nakanoshima":1,"time_sunshine60":37,"transit_count_sunshine60":1}},{"type":"Feature","geometry":{"type":"Point","coordinates":[139.689995,35.669155]},"properties":{"name":"代々木公園","time_nakanoshima":49,"transit_count_nakanoshima":2,"time_sunshine60":36,"transit_count_sunshine60":1}},{"type":"Feature","geometry":{"type":"Point","coordinates":[139.65547,35.662654]},"properties":{"name":"東松原","time_nakanoshima":49,"transit_count_nakanoshima":2,"time_sunshine60":42,"transit_count_sunshine60":1}},{"type":"Feature","geometry":{"type":"Point","coordinates":[139.673052,35.665433]},"properties":{"name":"東北沢","time_nakanoshima":49,"transit_count_nakanoshima":2,"time_sunshine60":42,"transit_count_sunshine60":1}},{"type":"Feature","geometry":{"type":"Point","coordinates":[139.392576,35.654871]},"properties":{"name":"南平","time_nakanoshima":49,"transit_count_nakanoshima":1,"time_sunshine60":75,"transit_count_sunshine60":2}},{"type":"Feature","geometry":{"type":"Point","coordinates":[139.712604,35.665295]},"properties":{"name":"表参道","time_nakanoshima":49,"transit_count_nakanoshima":1,"time_sunshine60":35,"transit_count_sunshine60":1}},{"type":"Feature","geometry":{"type":"Point","coordinates":[139.505954,35.701008]},"properties":{"name":"武蔵小金井","time_nakanoshima":49,"transit_count_nakanoshima":2,"time_sunshine60":51,"transit_count_sunshine60":1}},{"type":"Feature","geometry":{"type":"Point","coordinates":[139.686706,35.681419]},"properties":{"name":"初台","time_nakanoshima":50,"transit_count_nakanoshima":0,"time_sunshine60":34,"transit_count_sunshine60":1}},{"type":"Feature","geometry":{"type":"Point","coordinates":[139.680444,35.575332]},"properties":{"name":"鵜の木","time_nakanoshima":50,"transit_count_nakanoshima":2,"time_sunshine60":52,"transit_count_sunshine60":2}},{"type":"Feature","geometry":{"type":"Point","coordinates":[139.409315,35.689737]},"properties":{"name":"柴崎体育館","time_nakanoshima":50,"transit_count_nakanoshima":1,"time_sunshine60":70,"transit_count_sunshine60":2}},{"type":"Feature","geometry":{"type":"Point","coordinates":[139.693564,35.657223]},"properties":{"name":"神泉","time_nakanoshima":50,"transit_count_nakanoshima":2,"time_sunshine60":35,"transit_count_sunshine60":1}},{"type":"Feature","geometry":{"type":"Point","coordinates":[139.698774,35.615384]},"properties":{"name":"西小山","time_nakanoshima":50,"transit_count_nakanoshima":1,"time_sunshine60":45,"transit_count_sunshine60":1}},{"type":"Feature","geometry":{"type":"Point","coordinates":[139.570287,35.562664]},"properties":{"name":"中川（神奈川県）","time_nakanoshima":50,"transit_count_nakanoshima":2,"time_sunshine60":66,"transit_count_sunshine60":2}},{"type":"Feature","geometry":{"type":"Point","coordinates":[139.514283,35.794775]},"properties":{"name":"東所沢","time_nakanoshima":50,"transit_count_nakanoshima":1,"time_sunshine60":47,"transit_count_sunshine60":1}},{"type":"Feature","geometry":{"type":"Point","coordinates":[139.381632,35.659564]},"properties":{"name":"豊田（東京都）","time_nakanoshima":50,"transit_count_nakanoshima":1,"time_sunshine60":65,"transit_count_sunshine60":1}},{"type":"Feature","geometry":{"type":"Point","coordinates":[139.693358,35.606273]},"properties":{"name":"北千束","time_nakanoshima":50,"transit_count_nakanoshima":1,"time_sunshine60":51,"transit_count_sunshine60":2}},{"type":"Feature","geometry":{"type":"Point","coordinates":[139.690941,35.637409]},"properties":{"name":"祐天寺","time_nakanoshima":50,"transit_count_nakanoshima":1,"time_sunshine60":37,"transit_count_sunshine60":1}},{"type":"Feature","geometry":{"type":"Point","coordinates":[139.699132,35.693289]},"properties":{"name":"新宿西口","time_nakanoshima":50,"transit_count_nakanoshima":1,"time_sunshine60":23,"transit_count_sunshine60":0}},{"type":"Feature","geometry":{"type":"Point","coordinates":[139.642055,35.659905]},"properties":{"name":"松原（東京都）","time_nakanoshima":51,"transit_count_nakanoshima":1,"time_sunshine60":49,"transit_count_sunshine60":2}},{"type":"Feature","geometry":{"type":"Point","coordinates":[139.408534,35.641973]},"properties":{"name":"中央大学・明星大学","time_nakanoshima":51,"transit_count_nakanoshima":1,"time_sunshine60":82,"transit_count_sunshine60":2}},{"type":"Feature","geometry":{"type":"Point","coordinates":[139.537314,35.669336]},"properties":{"name":"大沢コミュニティセンター","time_nakanoshima":51,"transit_count_nakanoshima":1,"time_sunshine60":73,"transit_count_sunshine60":2}},{"type":"Feature","geometry":{"type":"Point","coordinates":[139.685305,35.571249]},"properties":{"name":"下丸子","time_nakanoshima":51,"transit_count_nakanoshima":2,"time_sunshine60":53,"transit_count_sunshine60":2}},{"type":"Feature","geometry":{"type":"Point","coordinates":[139.700916,35.532837]},"properties":{"name":"京急川崎","time_nakanoshima":51,"transit_count_nakanoshima":0,"time_sunshine60":58,"transit_count_sunshine60":2}},{"type":"Feature","geometry":{"type":"Point","coordinates":[139.413184,35.709893]},"properties":{"name":"高松（東京都）","time_nakanoshima":51,"transit_count_nakanoshima":1,"time_sunshine60":71,"transit_count_sunshine60":2}},{"type":"Feature","geometry":{"type":"Point","coordinates":[139.721773,35.60158]},"properties":{"name":"西大井","time_nakanoshima":51,"transit_count_nakanoshima":1,"time_sunshine60":49,"transit_count_sunshine60":0}},{"type":"Feature","geometry":{"type":"Point","coordinates":[139.688995,35.669683]},"properties":{"name":"代々木八幡","time_nakanoshima":51,"transit_count_nakanoshima":2,"time_sunshine60":35,"transit_count_sunshine60":1}},{"type":"Feature","geometry":{"type":"Point","coordinates":[139.698987,35.644389]},"properties":{"name":"中目黒","time_nakanoshima":51,"transit_count_nakanoshima":1,"time_sunshine60":34,"transit_count_sunshine60":1}},{"type":"Feature","geometry":{"type":"Point","coordinates":[139.493666,35.531939]},"properties":{"name":"長津田","time_nakanoshima":51,"transit_count_nakanoshima":1,"time_sunshine60":67,"transit_count_sunshine60":1}},{"type":"Feature","geometry":{"type":"Point","coordinates":[139.704384,35.62041]},"properties":{"name":"武蔵小山","time_nakanoshima":51,"transit_count_nakanoshima":1,"time_sunshine60":44,"transit_count_sunshine60":1}},{"type":"Feature","geometry":{"type":"Point","coordinates":[139.379105,35.646732]},"properties":{"name":"平山城址公園","time_nakanoshima":51,"transit_count_nakanoshima":1,"time_sunshine60":77,"transit_count_sunshine60":2}},{"type":"Feature","geometry":{"type":"Point","coordinates":[139.703858,35.669214]},"properties":{"name":"明治神宮前","time_nakanoshima":51,"transit_count_nakanoshima":2,"time_sunshine60":29,"transit_count_sunshine60":1}},{"type":"Feature","geometry":{"type":"Point","coordinates":[139.633404,35.549966]},"properties":{"name":"日吉本町","time_nakanoshima":51,"transit_count_nakanoshima":2,"time_sunshine60":57,"transit_count_sunshine60":2}},{"type":"Feature","geometry":{"type":"Point","coordinates":[139.642888,35.676097]},"properties":{"name":"永福町","time_nakanoshima":52,"transit_count_nakanoshima":1,"time_sunshine60":46,"transit_count_sunshine60":1}},{"type":"Feature","geometry":{"type":"Point","coordinates":[139.716071,35.562484]},"properties":{"name":"蒲田","time_nakanoshima":52,"transit_count_nakanoshima":1,"time_sunshine60":55,"transit_count_sunshine60":1}},{"type":"Feature","geometry":{"type":"Point","coordinates":[139.644972,35.647656]},"properties":{"name":"宮の坂","time_nakanoshima":52,"transit_count_nakanoshima":2,"time_sunshine60":53,"transit_count_sunshine60":2}},{"type":"Feature","geometry":{"type":"Point","coordinates":[139.666386,35.64463]},"properties":{"name":"西太子堂","time_nakanoshima":52,"transit_count_nakanoshima":2,"time_sunshine60":49,"transit_count_sunshine60":2}},{"type":"Feature","geometry":{"type":"Point","coordinates":[139.700017,35.695454]},"properties":{"name":"西武新宿","time_nakanoshima":52,"transit_count_nakanoshima":1,"time_sunshine60":25,"transit_count_sunshine60":0}},{"type":"Feature","geometry":{"type":"Point","coordinates":[139.724547,35.672823]},"properties":{"name":"青山一丁目","time_nakanoshima":52,"transit_count_nakanoshima":1,"time_sunshine60":32,"transit_count_sunshine60":1}},{"type":"Feature","geometry":{"type":"Point","coordinates":[139.47676,35.731198]},"properties":{"name":"青梅街道","time_nakanoshima":52,"transit_count_nakanoshima":1,"time_sunshine60":63,"transit_count_sunshine60":2}},{"type":"Feature","geometry":{"type":"Point","coordinates":[139.444068,35.508084]},"properties":{"name":"中央林間","time_nakanoshima":52,"transit_count_nakanoshima":1,"time_sunshine60":72,"transit_count_sunshine60":1}},{"type":"Feature","geometry":{"type":"Point","coordinates":[139.504572,35.535915]},"properties":{"name":"田奈","time_nakanoshima":52,"transit_count_nakanoshima":1,"time_sunshine60":71,"transit_count_sunshine60":2}},{"type":"Feature","geometry":{"type":"Point","coordinates":[139.52373,35.701564]},"properties":{"name":"東小金井","time_nakanoshima":52,"transit_count_nakanoshima":2,"time_sunshine60":48,"transit_count_sunshine60":1}},{"type":"Feature","geometry":{"type":"Point","coordinates":[139.417072,35.714337]},"properties":{"name":"立飛","time_nakanoshima":52,"transit_count_nakanoshima":1,"time_sunshine60":72,"transit_count_sunshine60":2}},{"type":"Feature","geometry":{"type":"Point","coordinates":[139.659247,35.671042]},"properties":{"name":"代田橋","time_nakanoshima":53,"transit_count_nakanoshima":1,"time_sunshine60":36,"transit_count_sunshine60":1}},{"type":"Feature","geometry":{"type":"Point","coordinates":[139.579036,35.553387]},"properties":{"name":"センター北","time_nakanoshima":53,"transit_count_nakanoshima":2,"time_sunshine60":66,"transit_count_sunshine60":2}},{"type":"Feature","geometry":{"type":"Point","coordinates":[139.707607,35.603802]},"properties":{"name":"荏原町","time_nakanoshima":53,"transit_count_nakanoshima":1,"time_sunshine60":54,"transit_count_sunshine60":2}},{"type":"Feature","geometry":{"type":"Point","coordinates":[139.409246,35.678244]},"properties":{"name":"甲州街道","time_nakanoshima":53,"transit_count_nakanoshima":1,"time_sunshine60":73,"transit_count_sunshine60":2}},{"type":"Feature","geometry":{"type":"Point","coordinates":[139.693717,35.678598]},"properties":{"name":"参宮橋","time_nakanoshima":53,"transit_count_nakanoshima":2,"time_sunshine60":33,"transit_count_sunshine60":1}},{"type":"Feature","geometry":{"type":"Point","coordinates":[139.496791,35.778468]},"properties":{"name":"秋津","time_nakanoshima":53,"transit_count_nakanoshima":1,"time_sunshine60":46,"transit_count_sunshine60":0}},{"type":"Feature","geometry":{"type":"Point","coordinates":[139.392908,35.703782]},"properties":{"name":"西立川","time_nakanoshima":53,"transit_count_nakanoshima":1,"time_sunshine60":73,"transit_count_sunshine60":2}},{"type":"Feature","geometry":{"type":"Point","coordinates":[139.366218,35.642816]},"properties":{"name":"長沼（東京都）","time_nakanoshima":53,"transit_count_nakanoshima":1,"time_sunshine60":79,"transit_count_sunshine60":2}},{"type":"Feature","geometry":{"type":"Point","coordinates":[139.67603,35.508312]},"properties":{"name":"鶴見","time_nakanoshima":53,"transit_count_nakanoshima":1,"time_sunshine60":62,"transit_count_sunshine60":1}},{"type":"Feature","geometry":{"type":"Point","coordinates":[139.470381,35.511639]},"properties":{"name":"南町田グランベリーパーク","time_nakanoshima":53,"transit_count_nakanoshima":1,"time_sunshine60":69,"transit_count_sunshine60":1}},{"type":"Feature","geometry":{"type":"Point","coordinates":[139.692554,35.567666]},"properties":{"name":"武蔵新田","time_nakanoshima":53,"transit_count_nakanoshima":2,"time_sunshine60":55,"transit_count_sunshine60":2}},{"type":"Feature","geometry":{"type":"Point","coordinates":[139.353941,35.644621]},"properties":{"name":"北野（東京都）","time_nakanoshima":53,"transit_count_nakanoshima":1,"time_sunshine60":71,"transit_count_sunshine60":1}},{"type":"Feature","geometry":{"type":"Point","coordinates":[139.633145,35.498728]},"properties":{"name":"妙蓮寺","time_nakanoshima":53,"transit_count_nakanoshima":1,"time_sunshine60":64,"transit_count_sunshine60":1}},{"type":"Feature","geometry":{"type":"Point","coordinates":[139.620222,35.549599]},"properties":{"name":"高田（神奈川県）","time_nakanoshima":53,"transit_count_nakanoshima":2,"time_sunshine60":59,"transit_count_sunshine60":2}},{"type":"Feature","geometry":{"type":"Point","coordinates":[139.403687,35.648625]},"properties":{"name":"多摩動物公園","time_nakanoshima":54,"transit_count_nakanoshima":1,"time_sunshine60":79,"transit_count_sunshine60":2}},{"type":"Feature","geometry":{"type":"Point","coordinates":[139.574704,35.545638]},"properties":{"name":"センター南","time_nakanoshima":54,"transit_count_nakanoshima":2,"time_sunshine60":68,"transit_count_sunshine60":2}},{"type":"Feature","geometry":{"type":"Point","coordinates":[139.738324,35.678517]},"properties":{"name":"永田町","time_nakanoshima":54,"transit_count_nakanoshima":1,"time_sunshine60":22,"transit_count_sunshine60":0}},{"type":"Feature","geometry":{"type":"Point","coordinates":[139.622048,35.466094]},"properties":{"name":"横浜","time_nakanoshima":54,"transit_count_nakanoshima":1,"time_sunshine60":62,"transit_count_sunshine60":0}},{"type":"Feature","geometry":{"type":"Point","coordinates":[139.390808,35.452679]},"properties":{"name":"海老名（小田急・相鉄）","time_nakanoshima":54,"transit_count_nakanoshima":1,"time_sunshine60":78,"transit_count_sunshine60":1}},{"type":"Feature","geometry":{"type":"Point","coordinates":[139.717631,35.670322]},"properties":{"name":"外苑前","time_nakanoshima":54,"transit_count_nakanoshima":2,"time_sunshine60":34,"transit_count_sunshine60":1}},{"type":"Feature","geometry":{"type":"Point","coordinates":[139.659637,35.645907]},"properties":{"name":"若林（東京都）","time_nakanoshima":54,"transit_count_nakanoshima":2,"time_sunshine60":51,"transit_count_sunshine60":2}},{"type":"Feature","geometry":{"type":"Point","coordinates":[139.422607,35.515166]},"properties":{"name":"小田急相模原","time_nakanoshima":54,"transit_count_nakanoshima":2,"time_sunshine60":78,"transit_count_sunshine60":2}},{"type":"Feature","geometry":{"type":"Point","coordinates":[139.646805,35.643268]},"properties":{"name":"上町","time_nakanoshima":54,"transit_count_nakanoshima":2,"time_sunshine60":55,"transit_count_sunshine60":2}},{"type":"Feature","geometry":{"type":"Point","coordinates":[139.556223,35.803776]},"properties":{"name":"新座","time_nakanoshima":54,"transit_count_nakanoshima":1,"time_sunshine60":43,"transit_count_sunshine60":1}},{"type":"Feature","geometry":{"type":"Point","coordinates":[139.419572,35.718781]},"properties":{"name":"泉体育館","time_nakanoshima":54,"transit_count_nakanoshima":1,"time_sunshine60":72,"transit_count_sunshine60":2}},{"type":"Feature","geometry":{"type":"Point","coordinates":[139.70355,35.648213]},"properties":{"name":"代官山","time_nakanoshima":54,"transit_count_nakanoshima":1,"time_sunshine60":33,"transit_count_sunshine60":1}},{"type":"Feature","geometry":{"type":"Point","coordinates":[139.734696,35.607601]},"properties":{"name":"大井町","time_nakanoshima":54,"transit_count_nakanoshima":1,"time_sunshine60":41,"transit_count_sunshine60":0}},{"type":"Feature","geometry":{"type":"Point","coordinates":[139.712646,35.605681]},"properties":{"name":"中延","time_nakanoshima":54,"transit_count_nakanoshima":1,"time_sunshine60":47,"transit_count_sunshine60":1}},{"type":"Feature","geometry":{"type":"Point","coordinates":[139.384741,35.706364]},"properties":{"name":"東中神","time_nakanoshima":54,"transit_count_nakanoshima":1,"time_sunshine60":74,"transit_count_sunshine60":2}},{"type":"Feature","geometry":{"type":"Point","coordinates":[139.43905,35.519971]},"properties":{"name":"東林間","time_nakanoshima":54,"transit_count_nakanoshima":2,"time_sunshine60":78,"transit_count_sunshine60":2}},{"type":"Feature","geometry":{"type":"Point","coordinates":[139.69891,35.683626]},"properties":{"name":"南新宿","time_nakanoshima":54,"transit_count_nakanoshima":2,"time_sunshine60":32,"transit_count_sunshine60":1}},{"type":"Feature","geometry":{"type":"Point","coordinates":[139.713744,35.625617]},"properties":{"name":"不動前","time_nakanoshima":54,"transit_count_nakanoshima":1,"time_sunshine60":41,"transit_count_sunshine60":1}},{"type":"Feature","geometry":{"type":"Point","coordinates":[139.544605,35.702133]},"properties":{"name":"武蔵境","time_nakanoshima":54,"transit_count_nakanoshima":2,"time_sunshine60":46,"transit_count_sunshine60":1}},{"type":"Feature","geometry":{"type":"Point","coordinates":[139.700359,35.562418]},"properties":{"name":"矢口渡","time_nakanoshima":54,"transit_count_nakanoshima":2,"time_sunshine60":56,"transit_count_sunshine60":2}},{"type":"Feature","geometry":{"type":"Point","coordinates":[139.634972,35.678792]},"properties":{"name":"西永福","time_nakanoshima":55,"transit_count_nakanoshima":1,"time_sunshine60":49,"transit_count_sunshine60":1}},{"type":"Feature","geometry":{"type":"Point","coordinates":[139.718301,35.608857]},"properties":{"name":"戸越公園","time_nakanoshima":55,"transit_count_nakanoshima":1,"time_sunshine60":54,"transit_count_sunshine60":1}},{"type":"Feature","geometry":{"type":"Point","coordinates":[139.712859,35.534976]},"properties":{"name":"港町","time_nakanoshima":55,"transit_count_nakanoshima":1,"time_sunshine60":65,"transit_count_sunshine60":3}},{"type":"Feature","geometry":{"type":"Point","coordinates":[139.418154,35.723225]},"properties":{"name":"砂川七番","time_nakanoshima":55,"transit_count_nakanoshima":1,"time_sunshine60":71,"transit_count_sunshine60":2}},{"type":"Feature","geometry":{"type":"Point","coordinates":[139.650888,35.643546]},"properties":{"name":"世田谷","time_nakanoshima":55,"transit_count_nakanoshima":2,"time_sunshine60":54,"transit_count_sunshine60":2}},{"type":"Feature","geometry":{"type":"Point","coordinates":[139.697774,35.602274]},"properties":{"name":"長原（東京都）","time_nakanoshima":55,"transit_count_nakanoshima":2,"time_sunshine60":48,"transit_count_sunshine60":1}},{"type":"Feature","geometry":{"type":"Point","coordinates":[139.627813,35.489507]},"properties":{"name":"白楽","time_nakanoshima":55,"transit_count_nakanoshima":1,"time_sunshine60":66,"transit_count_sunshine60":1}},{"type":"Feature","geometry":{"type":"Point","coordinates":[139.339275,35.655425]},"properties":{"name":"八王子","time_nakanoshima":55,"transit_count_nakanoshima":1,"time_sunshine60":70,"transit_count_sunshine60":1}},{"type":"Feature","geometry":{"type":"Point","coordinates":[139.420029,35.671217]},"properties":{"name":"万願寺","time_nakanoshima":55,"transit_count_nakanoshima":1,"time_sunshine60":75,"transit_count_sunshine60":2}},{"type":"Feature","geometry":{"type":"Point","coordinates":[139.71576,35.632712]},"properties":{"name":"目黒","time_nakanoshima":55,"transit_count_nakanoshima":1,"time_sunshine60":33,"transit_count_sunshine60":0}},{"type":"Feature","geometry":{"type":"Point","coordinates":[139.604919,35.554188]},"properties":{"name":"東山田","time_nakanoshima":55,"transit_count_nakanoshima":2,"time_sunshine60":61,"transit_count_sunshine60":2}},{"type":"Feature","geometry":{"type":"Point","coordinates":[139.410831,35.655269]},"properties":{"name":"程久保","time_nakanoshima":56,"transit_count_nakanoshima":1,"time_sunshine60":77,"transit_count_sunshine60":2}},{"type":"Feature","geometry":{"type":"Point","coordinates":[139.627638,35.681541]},"properties":{"name":"浜田山","time_nakanoshima":56,"transit_count_nakanoshima":1,"time_sunshine60":50,"transit_count_sunshine60":1}},{"type":"Feature","geometry":{"type":"Point","coordinates":[139.711496,35.609635]},"properties":{"name":"荏原中延","time_nakanoshima":56,"transit_count_nakanoshima":2,"time_sunshine60":45,"transit_count_sunshine60":1}},{"type":"Feature","geometry":{"type":"Point","coordinates":[139.702614,35.670961]},"properties":{"name":"原宿","time_nakanoshima":56,"transit_count_nakanoshima":2,"time_sunshine60":26,"transit_count_sunshine60":0}},{"type":"Feature","geometry":{"type":"Point","coordinates":[139.560671,35.702676]},"properties":{"name":"三鷹","time_nakanoshima":56,"transit_count_nakanoshima":2,"time_sunshine60":44,"transit_count_sunshine60":1}},{"type":"Feature","geometry":{"type":"Point","coordinates":[139.655191,35.643943]},"properties":{"name":"松陰神社前","time_nakanoshima":56,"transit_count_nakanoshima":2,"time_sunshine60":53,"transit_count_sunshine60":2}},{"type":"Feature","geometry":{"type":"Point","coordinates":[139.700187,35.70104]},"properties":{"name":"新大久保","time_nakanoshima":56,"transit_count_nakanoshima":2,"time_sunshine60":19,"transit_count_sunshine60":0}},{"type":"Feature","geometry":{"type":"Point","coordinates":[139.737296,35.676905]},"properties":{"name":"赤坂見附","time_nakanoshima":56,"transit_count_nakanoshima":1,"time_sunshine60":24,"transit_count_sunshine60":0}},{"type":"Feature","geometry":{"type":"Point","coordinates":[139.702188,35.683597]},"properties":{"name":"代々木","time_nakanoshima":56,"transit_count_nakanoshima":2,"time_sunshine60":23,"transit_count_sunshine60":0}},{"type":"Feature","geometry":{"type":"Point","coordinates":[139.697604,35.700429]},"properties":{"name":"大久保（東京都）","time_nakanoshima":56,"transit_count_nakanoshima":2,"time_sunshine60":28,"transit_count_sunshine60":1}},{"type":"Feature","geometry":{"type":"Point","coordinates":[139.728272,35.588721]},"properties":{"name":"大森（東京都）","time_nakanoshima":56,"transit_count_nakanoshima":1,"time_sunshine60":51,"transit_count_sunshine60":1}},{"type":"Feature","geometry":{"type":"Point","coordinates":[139.375687,35.709059]},"properties":{"name":"中神","time_nakanoshima":56,"transit_count_nakanoshima":1,"time_sunshine60":76,"transit_count_sunshine60":2}},{"type":"Feature","geometry":{"type":"Point","coordinates":[139.629452,35.483424]},"properties":{"name":"東白楽","time_nakanoshima":56,"transit_count_nakanoshima":1,"time_sunshine60":67,"transit_count_sunshine60":1}},{"type":"Feature","geometry":{"type":"Point","coordinates":[139.726167,35.666571]},"properties":{"name":"乃木坂","time_nakanoshima":56,"transit_count_nakanoshima":2,"time_sunshine60":39,"transit_count_sunshine60":1}},{"type":"Feature","geometry":{"type":"Point","coordinates":[139.69153,35.523033]},"properties":{"name":"八丁畷","time_nakanoshima":56,"transit_count_nakanoshima":1,"time_sunshine60":68,"transit_count_sunshine60":3}},{"type":"Feature","geometry":{"type":"Point","coordinates":[139.741711,35.685377]},"properties":{"name":"半蔵門","time_nakanoshima":56,"transit_count_nakanoshima":1,"time_sunshine60":32,"transit_count_sunshine60":1}},{"type":"Feature","geometry":{"type":"Point","coordinates":[139.738891,35.628066]},"properties":{"name":"品川","time_nakanoshima":56,"transit_count_nakanoshima":1,"time_sunshine60":40,"transit_count_sunshine60":0}},{"type":"Feature","geometry":{"type":"Point","coordinates":[139.720692,35.535254]},"properties":{"name":"鈴木町","time_nakanoshima":56,"transit_count_nakanoshima":1,"time_sunshine60":66,"transit_count_sunshine60":3}},{"type":"Feature","geometry":{"type":"Point","coordinates":[139.516981,35.676983]},"properties":{"name":"多磨","time_nakanoshima":57,"transit_count_nakanoshima":2,"time_sunshine60":60,"transit_count_sunshine60":2}},{"type":"Feature","geometry":{"type":"Point","coordinates":[139.48008,35.72231]},"properties":{"name":"一橋学園","time_nakanoshima":57,"transit_count_nakanoshima":3,"time_sunshine60":64,"transit_count_sunshine60":2}},{"type":"Feature","geometry":{"type":"Point","coordinates":[139.726217,35.608802]},"properties":{"name":"下神明","time_nakanoshima":57,"transit_count_nakanoshima":1,"time_sunshine60":52,"transit_count_sunshine60":1}},{"type":"Feature","geometry":{"type":"Point","coordinates":[139.677892,35.50695]},"properties":{"name":"京急鶴見","time_nakanoshima":57,"transit_count_nakanoshima":1,"time_sunshine60":66,"transit_count_sunshine60":1}},{"type":"Feature","geometry":{"type":"Point","coordinates":[139.417949,35.73216]},"properties":{"name":"玉川上水","time_nakanoshima":57,"transit_count_nakanoshima":1,"time_sunshine60":61,"transit_count_sunshine60":1}},{"type":"Feature","geometry":{"type":"Point","coordinates":[139.70967,35.647093]},"properties":{"name":"恵比寿（東京都）","time_nakanoshima":57,"transit_count_nakanoshima":2,"time_sunshine60":31,"transit_count_sunshine60":0}},{"type":"Feature","geometry":{"type":"Point","coordinates":[139.714939,35.615995]},"properties":{"name":"戸越銀座","time_nakanoshima":57,"transit_count_nakanoshima":2,"time_sunshine60":44,"transit_count_sunshine60":1}},{"type":"Feature","geometry":{"type":"Point","coordinates":[139.65381,35.486674]},"properties":{"name":"新子安","time_nakanoshima":57,"transit_count_nakanoshima":1,"time_sunshine60":66,"transit_count_sunshine60":1}},{"type":"Feature","geometry":{"type":"Point","coordinates":[139.703521,35.691472]},"properties":{"name":"新宿三丁目","time_nakanoshima":57,"transit_count_nakanoshima":2,"time_sunshine60":25,"transit_count_sunshine60":1}},{"type":"Feature","geometry":{"type":"Point","coordinates":[139.692549,35.694457]},"properties":{"name":"西新宿","time_nakanoshima":57,"transit_count_nakanoshima":2,"time_sunshine60":30,"transit_count_sunshine60":1}},{"type":"Feature","geometry":{"type":"Point","coordinates":[139.690914,35.599691]},"properties":{"name":"洗足池","time_nakanoshima":57,"transit_count_nakanoshima":2,"time_sunshine60":50,"transit_count_sunshine60":1}},{"type":"Feature","geometry":{"type":"Point","coordinates":[139.408636,35.49925]},"properties":{"name":"相武台前","time_nakanoshima":57,"transit_count_nakanoshima":2,"time_sunshine60":81,"transit_count_sunshine60":2}},{"type":"Feature","geometry":{"type":"Point","coordinates":[139.461523,35.469865]},"properties":{"name":"大和（神奈川県）","time_nakanoshima":57,"transit_count_nakanoshima":1,"time_sunshine60":77,"transit_count_sunshine60":1}},{"type":"Feature","geometry":{"type":"Point","coordinates":[139.589819,35.535234]},"properties":{"name":"仲町台","time_nakanoshima":57,"transit_count_nakanoshima":2,"time_sunshine60":73,"transit_count_sunshine60":2}},{"type":"Feature","geometry":{"type":"Point","coordinates":[139.693207,35.690676]},"properties":{"name":"都庁前","time_nakanoshima":57,"transit_count_nakanoshima":2,"time_sunshine60":34,"transit_count_sunshine60":1}},{"type":"Feature","geometry":{"type":"Point","coordinates":[139.587164,35.815413]},"properties":{"name":"北朝霞","time_nakanoshima":57,"transit_count_nakanoshima":1,"time_sunshine60":35,"transit_count_sunshine60":0}},{"type":"Feature","geometry":{"type":"Point","coordinates":[139.364392,35.438978]},"properties":{"name":"本厚木","time_nakanoshima":57,"transit_count_nakanoshima":1,"time_sunshine60":81,"transit_count_sunshine60":1}},{"type":"Feature","geometry":{"type":"Point","coordinates":[139.463984,35.711255]},"properties":{"name":"恋ヶ窪","time_nakanoshima":57,"transit_count_nakanoshima":3,"time_sunshine60":64,"transit_count_sunshine60":2}},{"type":"Feature","geometry":{"type":"Point","coordinates":[139.726688,35.63816]},"properties":{"name":"白金台","time_nakanoshima":57,"transit_count_nakanoshima":1,"time_sunshine60":40,"transit_count_sunshine60":1}},{"type":"Feature","geometry":{"type":"Point","coordinates":[139.63255,35.457547]},"properties":{"name":"みなとみらい","time_nakanoshima":57,"transit_count_nakanoshima":1,"time_sunshine60":65,"transit_count_sunshine60":0}},{"type":"Feature","geometry":{"type":"Point","coordinates":[139.592819,35.560954]},"properties":{"name":"北山田（神奈川県）","time_nakanoshima":57,"transit_count_nakanoshima":2,"time_sunshine60":63,"transit_count_sunshine60":2}},{"type":"Feature","geometry":{"type":"Point","coordinates":[139.499761,35.656179]},"properties":{"name":"競艇場前（東京都）","time_nakanoshima":58,"transit_count_nakanoshima":2,"time_sunshine60":65,"transit_count_sunshine60":2}},{"type":"Feature","geometry":{"type":"Point","coordinates":[139.615167,35.683179]},"properties":{"name":"高井戸","time_nakanoshima":58,"transit_count_nakanoshima":1,"time_sunshine60":52,"transit_count_sunshine60":1}},{"type":"Feature","geometry":{"type":"Point","coordinates":[139.737703,35.691609]},"properties":{"name":"市ヶ谷","time_nakanoshima":58,"transit_count_nakanoshima":0,"time_sunshine60":18,"transit_count_sunshine60":0}},{"type":"Feature","geometry":{"type":"Point","coordinates":[139.484713,35.527221]},"properties":{"name":"つくし野","time_nakanoshima":58,"transit_count_nakanoshima":1,"time_sunshine60":75,"transit_count_sunshine60":2}},{"type":"Feature","geometry":{"type":"Point","coordinates":[139.308195,35.643592]},"properties":{"name":"めじろ台","time_nakanoshima":58,"transit_count_nakanoshima":1,"time_sunshine60":76,"transit_count_sunshine60":1}},{"type":"Feature","geometry":{"type":"Point","coordinates":[139.599251,35.687984]},"properties":{"name":"久我山","time_nakanoshima":58,"transit_count_nakanoshima":2,"time_sunshine60":50,"transit_count_sunshine60":1}},{"type":"Feature","geometry":{"type":"Point","coordinates":[139.33697,35.64437]},"properties":{"name":"京王片倉","time_nakanoshima":58,"transit_count_nakanoshima":1,"time_sunshine60":84,"transit_count_sunshine60":2}},{"type":"Feature","geometry":{"type":"Point","coordinates":[139.751429,35.695476]},"properties":{"name":"九段下","time_nakanoshima":58,"transit_count_nakanoshima":1,"time_sunshine60":26,"transit_count_sunshine60":1}},{"type":"Feature","geometry":{"type":"Point","coordinates":[139.419023,35.556049]},"properties":{"name":"古淵","time_nakanoshima":58,"transit_count_nakanoshima":2,"time_sunshine60":82,"transit_count_sunshine60":2}},{"type":"Feature","geometry":{"type":"Point","coordinates":[139.703849,35.712633]},"properties":{"name":"高田馬場","time_nakanoshima":58,"transit_count_nakanoshima":2,"time_sunshine60":17,"transit_count_sunshine60":0}},{"type":"Feature","geometry":{"type":"Point","coordinates":[139.361799,35.713225]},"properties":{"name":"昭島","time_nakanoshima":58,"transit_count_nakanoshima":1,"time_sunshine60":78,"transit_count_sunshine60":2}},{"type":"Feature","geometry":{"type":"Point","coordinates":[139.617391,35.506822]},"properties":{"name":"新横浜","time_nakanoshima":58,"transit_count_nakanoshima":2,"time_sunshine60":66,"transit_count_sunshine60":1}},{"type":"Feature","geometry":{"type":"Point","coordinates":[139.710964,35.688486]},"properties":{"name":"新宿御苑前","time_nakanoshima":58,"transit_count_nakanoshima":2,"time_sunshine60":31,"transit_count_sunshine60":1}},{"type":"Feature","geometry":{"type":"Point","coordinates":[139.472769,35.535358]},"properties":{"name":"成瀬","time_nakanoshima":58,"transit_count_nakanoshima":2,"time_sunshine60":78,"transit_count_sunshine60":2}},{"type":"Feature","geometry":{"type":"Point","coordinates":[139.519867,35.772111]},"properties":{"name":"清瀬","time_nakanoshima":58,"transit_count_nakanoshima":2,"time_sunshine60":44,"transit_count_sunshine60":0}},{"type":"Feature","geometry":{"type":"Point","coordinates":[139.311888,35.656174]},"properties":{"name":"西八王子","time_nakanoshima":58,"transit_count_nakanoshima":1,"time_sunshine60":72,"transit_count_sunshine60":1}},{"type":"Feature","geometry":{"type":"Point","coordinates":[139.685387,35.597136]},"properties":{"name":"石川台","time_nakanoshima":58,"transit_count_nakanoshima":2,"time_sunshine60":51,"transit_count_sunshine60":1}},{"type":"Feature","geometry":{"type":"Point","coordinates":[139.736451,35.672311]},"properties":{"name":"赤坂（東京都）","time_nakanoshima":58,"transit_count_nakanoshima":2,"time_sunshine60":39,"transit_count_sunshine60":2}},{"type":"Feature","geometry":{"type":"Point","coordinates":[139.711464,35.68121]},"properties":{"name":"千駄ヶ谷","time_nakanoshima":58,"transit_count_nakanoshima":2,"time_sunshine60":29,"transit_count_sunshine60":1}},{"type":"Feature","geometry":{"type":"Point","coordinates":[139.699222,35.518144]},"properties":{"name":"川崎新町","time_nakanoshima":58,"transit_count_nakanoshima":1,"time_sunshine60":81,"transit_count_sunshine60":3}},{"type":"Feature","geometry":{"type":"Point","coordinates":[139.725969,35.535726]},"properties":{"name":"川崎大師","time_nakanoshima":58,"transit_count_nakanoshima":1,"time_sunshine60":68,"transit_count_sunshine60":3}},{"type":"Feature","geometry":{"type":"Point","coordinates":[139.685846,35.706221]},"properties":{"name":"東中野","time_nakanoshima":58,"transit_count_nakanoshima":2,"time_sunshine60":30,"transit_count_sunshine60":1}},{"type":"Feature","geometry":{"type":"Point","coordinates":[139.448133,35.49564]},"properties":{"name":"南林間","time_nakanoshima":58,"transit_count_nakanoshima":2,"time_sunshine60":82,"transit_count_sunshine60":2}},{"type":"Feature","geometry":{"type":"Point","coordinates":[139.625341,35.474342]},"properties":{"name":"反町","time_nakanoshima":58,"transit_count_nakanoshima":1,"time_sunshine60":69,"transit_count_sunshine60":1}},{"type":"Feature","geometry":{"type":"Point","coordinates":[139.707471,35.540337]},"properties":{"name":"六郷土手","time_nakanoshima":58,"transit_count_nakanoshima":1,"time_sunshine60":66,"transit_count_sunshine60":3}},{"type":"Feature","geometry":{"type":"Point","coordinates":[139.707409,35.697927]},"properties":{"name":"東新宿","time_nakanoshima":58,"transit_count_nakanoshima":2,"time_sunshine60":23,"transit_count_sunshine60":1}},{"type":"Feature","geometry":{"type":"Point","coordinates":[139.331611,35.60693]},"properties":{"name":"相原","time_nakanoshima":59,"transit_count_nakanoshima":1,"time_sunshine60":86,"transit_count_sunshine60":2}},{"type":"Feature","geometry":{"type":"Point","coordinates":[139.607057,35.684845]},"properties":{"name":"富士見ヶ丘","time_nakanoshima":59,"transit_count_nakanoshima":1,"time_sunshine60":53,"transit_count_sunshine60":1}},{"type":"Feature","geometry":{"type":"Point","coordinates":[139.481713,35.517249]},"properties":{"name":"すずかけ台","time_nakanoshima":59,"transit_count_nakanoshima":1,"time_sunshine60":76,"transit_count_sunshine60":2}},{"type":"Feature","geometry":{"type":"Point","coordinates":[139.389377,35.454271]},"properties":{"name":"海老名（相模線）","time_nakanoshima":59,"transit_count_nakanoshima":1,"time_sunshine60":83,"transit_count_sunshine60":1}},{"type":"Feature","geometry":{"type":"Point","coordinates":[139.579775,35.703186]},"properties":{"name":"吉祥寺","time_nakanoshima":59,"transit_count_nakanoshima":2,"time_sunshine60":41,"transit_count_sunshine60":1}},{"type":"Feature","geometry":{"type":"Point","coordinates":[139.34383,35.65748]},"properties":{"name":"京王八王子","time_nakanoshima":59,"transit_count_nakanoshima":1,"time_sunshine60":70,"transit_count_sunshine60":1}},{"type":"Feature","geometry":{"type":"Point","coordinates":[139.65606,35.487202]},"properties":{"name":"京急新子安","time_nakanoshima":59,"transit_count_nakanoshima":1,"time_sunshine60":68,"transit_count_sunshine60":1}},{"type":"Feature","geometry":{"type":"Point","coordinates":[139.399888,35.480946]},"properties":{"name":"座間","time_nakanoshima":59,"transit_count_nakanoshima":2,"time_sunshine60":83,"transit_count_sunshine60":2}},{"type":"Feature","geometry":{"type":"Point","coordinates":[139.416663,35.739032]},"properties":{"name":"桜街道","time_nakanoshima":59,"transit_count_nakanoshima":1,"time_sunshine60":71,"transit_count_sunshine60":2}},{"type":"Feature","geometry":{"type":"Point","coordinates":[139.646228,35.492451]},"properties":{"name":"大口","time_nakanoshima":59,"transit_count_nakanoshima":2,"time_sunshine60":67,"transit_count_sunshine60":1}},{"type":"Feature","geometry":{"type":"Point","coordinates":[139.722383,35.622411]},"properties":{"name":"大崎広小路","time_nakanoshima":59,"transit_count_nakanoshima":2,"time_sunshine60":42,"transit_count_sunshine60":1}},{"type":"Feature","geometry":{"type":"Point","coordinates":[139.461096,35.723087]},"properties":{"name":"鷹の台","time_nakanoshima":59,"transit_count_nakanoshima":3,"time_sunshine60":66,"transit_count_sunshine60":2}},{"type":"Feature","geometry":{"type":"Point","coordinates":[139.66594,35.705816]},"properties":{"name":"中野（東京都）","time_nakanoshima":59,"transit_count_nakanoshima":2,"time_sunshine60":30,"transit_count_sunshine60":1}},{"type":"Feature","geometry":{"type":"Point","coordinates":[139.681794,35.697119]},"properties":{"name":"中野坂上","time_nakanoshima":59,"transit_count_nakanoshima":2,"time_sunshine60":32,"transit_count_sunshine60":1}},{"type":"Feature","geometry":{"type":"Point","coordinates":[139.586915,35.814386]},"properties":{"name":"朝霞台","time_nakanoshima":59,"transit_count_nakanoshima":1,"time_sunshine60":33,"transit_count_sunshine60":0}},{"type":"Feature","geometry":{"type":"Point","coordinates":[139.450689,35.490724]},"properties":{"name":"鶴間","time_nakanoshima":59,"transit_count_nakanoshima":2,"time_sunshine60":83,"transit_count_sunshine60":2}},{"type":"Feature","geometry":{"type":"Point","coordinates":[139.686612,35.517533]},"properties":{"name":"鶴見市場","time_nakanoshima":59,"transit_count_nakanoshima":1,"time_sunshine60":69,"transit_count_sunshine60":3}},{"type":"Feature","geometry":{"type":"Point","coordinates":[139.734302,35.536615]},"properties":{"name":"東門前","time_nakanoshima":59,"transit_count_nakanoshima":1,"time_sunshine60":69,"transit_count_sunshine60":3}},{"type":"Feature","geometry":{"type":"Point","coordinates":[139.476982,35.740864]},"properties":{"name":"萩山","time_nakanoshima":59,"transit_count_nakanoshima":2,"time_sunshine60":53,"transit_count_sunshine60":1}},{"type":"Feature","geometry":{"type":"Point","coordinates":[139.485124,35.668344]},"properties":{"name":"府中競馬正門前","time_nakanoshima":59,"transit_count_nakanoshima":2,"time_sunshine60":82,"transit_count_sunshine60":3}},{"type":"Feature","geometry":{"type":"Point","coordinates":[139.741482,35.671822]},"properties":{"name":"溜池山王","time_nakanoshima":59,"transit_count_nakanoshima":2,"time_sunshine60":31,"transit_count_sunshine60":1}},{"type":"Feature","geometry":{"type":"Point","coordinates":[139.734184,35.643076]},"properties":{"name":"白金高輪","time_nakanoshima":59,"transit_count_nakanoshima":1,"time_sunshine60":38,"transit_count_sunshine60":1}},{"type":"Feature","geometry":{"type":"Point","coordinates":[139.705262,35.678785]},"properties":{"name":"北参道","time_nakanoshima":59,"transit_count_nakanoshima":2,"time_sunshine60":27,"transit_count_sunshine60":1}},{"type":"Feature","geometry":{"type":"Point","coordinates":[139.705095,35.514407]},"properties":{"name":"小田栄","time_nakanoshima":59,"transit_count_nakanoshima":1,"time_sunshine60":82,"transit_count_sunshine60":3}},{"type":"Feature","geometry":{"type":"Point","coordinates":[139.526868,35.695981]},"properties":{"name":"新小金井","time_nakanoshima":60,"transit_count_nakanoshima":2,"time_sunshine60":57,"transit_count_sunshine60":2}},{"type":"Feature","geometry":{"type":"Point","coordinates":[139.488623,35.656123]},"properties":{"name":"是政","time_nakanoshima":60,"transit_count_nakanoshima":2,"time_sunshine60":67,"transit_count_sunshine60":2}},{"type":"Feature","geometry":{"type":"Point","coordinates":[139.458684,35.510457]},"properties":{"name":"つきみ野","time_nakanoshima":60,"transit_count_nakanoshima":2,"time_sunshine60":77,"transit_count_sunshine60":2}},{"type":"Feature","geometry":{"type":"Point","coordinates":[139.344062,35.417674]},"properties":{"name":"愛甲石田","time_nakanoshima":60,"transit_count_nakanoshima":1,"time_sunshine60":84,"transit_count_sunshine60":1}},{"type":"Feature","geometry":{"type":"Point","coordinates":[139.723746,35.560807]},"properties":{"name":"京急蒲田","time_nakanoshima":60,"transit_count_nakanoshima":1,"time_sunshine60":54,"transit_count_sunshine60":2}},{"type":"Feature","geometry":{"type":"Point","coordinates":[139.724235,35.62528]},"properties":{"name":"五反田","time_nakanoshima":60,"transit_count_nakanoshima":2,"time_sunshine60":35,"transit_count_sunshine60":0}},{"type":"Feature","geometry":{"type":"Point","coordinates":[139.722243,35.651269]},"properties":{"name":"広尾","time_nakanoshima":60,"transit_count_nakanoshima":2,"time_sunshine60":42,"transit_count_sunshine60":1}},{"type":"Feature","geometry":{"type":"Point","coordinates":[139.743685,35.673814]},"properties":{"name":"国会議事堂前","time_nakanoshima":60,"transit_count_nakanoshima":2,"time_sunshine60":33,"transit_count_sunshine60":1}},{"type":"Feature","geometry":{"type":"Point","coordinates":[139.714942,35.549697]},"properties":{"name":"雑色","time_nakanoshima":60,"transit_count_nakanoshima":1,"time_sunshine60":64,"transit_count_sunshine60":3}},{"type":"Feature","geometry":{"type":"Point","coordinates":[139.320583,35.644453]},"properties":{"name":"山田（東京都）","time_nakanoshima":60,"transit_count_nakanoshima":1,"time_sunshine60":86,"transit_count_sunshine60":2}},{"type":"Feature","geometry":{"type":"Point","coordinates":[139.730443,35.686085]},"properties":{"name":"四ツ谷","time_nakanoshima":60,"transit_count_nakanoshima":2,"time_sunshine60":25,"transit_count_sunshine60":1}},{"type":"Feature","geometry":{"type":"Point","coordinates":[139.719658,35.687821]},"properties":{"name":"四谷三丁目","time_nakanoshima":60,"transit_count_nakanoshima":2,"time_sunshine60":32,"transit_count_sunshine60":2}},{"type":"Feature","geometry":{"type":"Point","coordinates":[139.473397,35.78658]},"properties":{"name":"所沢","time_nakanoshima":60,"transit_count_nakanoshima":2,"time_sunshine60":48,"transit_count_sunshine60":0}},{"type":"Feature","geometry":{"type":"Point","coordinates":[139.599565,35.508532]},"properties":{"name":"小机","time_nakanoshima":60,"transit_count_nakanoshima":2,"time_sunshine60":68,"transit_count_sunshine60":1}},{"type":"Feature","geometry":{"type":"Point","coordinates":[139.721075,35.67996]},"properties":{"name":"信濃町","time_nakanoshima":60,"transit_count_nakanoshima":2,"time_sunshine60":27,"transit_count_sunshine60":1}},{"type":"Feature","geometry":{"type":"Point","coordinates":[139.612368,35.527085]},"properties":{"name":"新羽","time_nakanoshima":60,"transit_count_nakanoshima":2,"time_sunshine60":76,"transit_count_sunshine60":2}},{"type":"Feature","geometry":{"type":"Point","coordinates":[139.756799,35.695836]},"properties":{"name":"神保町","time_nakanoshima":60,"transit_count_nakanoshima":1,"time_sunshine60":30,"transit_count_sunshine60":1}},{"type":"Feature","geometry":{"type":"Point","coordinates":[139.680971,35.591913]},"properties":{"name":"雪が谷大塚","time_nakanoshima":60,"transit_count_nakanoshima":2,"time_sunshine60":53,"transit_count_sunshine60":1}},{"type":"Feature","geometry":{"type":"Point","coordinates":[139.533727,35.760446]},"properties":{"name":"東久留米","time_nakanoshima":60,"transit_count_nakanoshima":2,"time_sunshine60":42,"transit_count_sunshine60":0}},{"type":"Feature","geometry":{"type":"Point","coordinates":[139.633313,35.477897]},"properties":{"name":"東神奈川","time_nakanoshima":60,"transit_count_nakanoshima":1,"time_sunshine60":69,"transit_count_sunshine60":1}},{"type":"Feature","geometry":{"type":"Point","coordinates":[139.395773,35.568242]},"properties":{"name":"淵野辺","time_nakanoshima":60,"transit_count_nakanoshima":2,"time_sunshine60":84,"transit_count_sunshine60":2}},{"type":"Feature","geometry":{"type":"Point","coordinates":[139.706214,35.720178]},"properties":{"name":"目白","time_nakanoshima":60,"transit_count_nakanoshima":2,"time_sunshine60":15,"transit_count_sunshine60":0}},{"type":"Feature","geometry":{"type":"Point","coordinates":[139.718072,35.699233]},"properties":{"name":"若松河田","time_nakanoshima":60,"transit_count_nakanoshima":2,"time_sunshine60":32,"transit_count_sunshine60":1}},{"type":"Feature","geometry":{"type":"Point","coordinates":[139.722546,35.69232]},"properties":{"name":"曙橋","time_nakanoshima":61,"transit_count_nakanoshima":1,"time_sunshine60":30,"transit_count_sunshine60":1}},{"type":"Feature","geometry":{"type":"Point","coordinates":[139.370692,35.581296]},"properties":{"name":"相模原","time_nakanoshima":61,"transit_count_nakanoshima":1,"time_sunshine60":90,"transit_count_sunshine60":2}},{"type":"Feature","geometry":{"type":"Point","coordinates":[139.529786,35.670456]},"properties":{"name":"調布空港","time_nakanoshima":61,"transit_count_nakanoshima":1,"time_sunshine60":83,"transit_count_sunshine60":2}},{"type":"Feature","geometry":{"type":"Point","coordinates":[139.751525,35.672589]},"properties":{"name":"霞ヶ関（東京都）","time_nakanoshima":61,"transit_count_nakanoshima":2,"time_sunshine60":31,"transit_count_sunshine60":0}},{"type":"Feature","geometry":{"type":"Point","coordinates":[139.750073,35.670184]},"properties":{"name":"虎ノ門","time_nakanoshima":61,"transit_count_nakanoshima":2,"time_sunshine60":34,"transit_count_sunshine60":1}},{"type":"Feature","geometry":{"type":"Point","coordinates":[139.682388,35.585275]},"properties":{"name":"御嶽山","time_nakanoshima":61,"transit_count_nakanoshima":2,"time_sunshine60":54,"transit_count_sunshine60":1}},{"type":"Feature","geometry":{"type":"Point","coordinates":[139.649802,35.705344]},"properties":{"name":"高円寺","time_nakanoshima":61,"transit_count_nakanoshima":2,"time_sunshine60":32,"transit_count_sunshine60":1}},{"type":"Feature","geometry":{"type":"Point","coordinates":[139.740385,35.536615]},"properties":{"name":"大師橋","time_nakanoshima":61,"transit_count_nakanoshima":1,"time_sunshine60":71,"transit_count_sunshine60":3}},{"type":"Feature","geometry":{"type":"Point","coordinates":[139.415851,35.745303]},"properties":{"name":"上北台","time_nakanoshima":61,"transit_count_nakanoshima":1,"time_sunshine60":73,"transit_count_sunshine60":2}},{"type":"Feature","geometry":{"type":"Point","coordinates":[139.758878,35.666463]},"properties":{"name":"新橋","time_nakanoshima":61,"transit_count_nakanoshima":1,"time_sunshine60":36,"transit_count_sunshine60":1}},{"type":"Feature","geometry":{"type":"Point","coordinates":[139.669468,35.697457]},"properties":{"name":"新中野","time_nakanoshima":61,"transit_count_nakanoshima":2,"time_sunshine60":34,"transit_count_sunshine60":1}},{"type":"Feature","geometry":{"type":"Point","coordinates":[139.627799,35.844245]},"properties":{"name":"西浦和","time_nakanoshima":61,"transit_count_nakanoshima":1,"time_sunshine60":44,"transit_count_sunshine60":1}},{"type":"Feature","geometry":{"type":"Point","coordinates":[139.599612,35.703788]},"properties":{"name":"西荻窪","time_nakanoshima":61,"transit_count_nakanoshima":2,"time_sunshine60":39,"transit_count_sunshine60":1}},{"type":"Feature","geometry":{"type":"Point","coordinates":[139.343563,35.720796]},"properties":{"name":"拝島","time_nakanoshima":61,"transit_count_nakanoshima":1,"time_sunshine60":70,"transit_count_sunshine60":1}},{"type":"Feature","geometry":{"type":"Point","coordinates":[139.713333,35.510465]},"properties":{"name":"浜川崎","time_nakanoshima":61,"transit_count_nakanoshima":1,"time_sunshine60":83,"transit_count_sunshine60":2}},{"type":"Feature","geometry":{"type":"Point","coordinates":[139.708442,35.564362]},"properties":{"name":"蓮沼","time_nakanoshima":61,"transit_count_nakanoshima":2,"time_sunshine60":61,"transit_count_sunshine60":1}},{"type":"Feature","geometry":{"type":"Point","coordinates":[139.731325,35.664129]},"properties":{"name":"六本木","time_nakanoshima":61,"transit_count_nakanoshima":2,"time_sunshine60":39,"transit_count_sunshine60":1}},{"type":"Feature","geometry":{"type":"Point","coordinates":[139.714354,35.679541]},"properties":{"name":"国立競技場","time_nakanoshima":61,"transit_count_nakanoshima":2,"time_sunshine60":34,"transit_count_sunshine60":1}},{"type":"Feature","geometry":{"type":"Point","coordinates":[139.650569,35.442352]},"properties":{"name":"元町・中華街","time_nakanoshima":61,"transit_count_nakanoshima":1,"time_sunshine60":69,"transit_count_sunshine60":0}},{"type":"Feature","geometry":{"type":"Point","coordinates":[139.352361,35.580462]},"properties":{"name":"南橋本","time_nakanoshima":62,"transit_count_nakanoshima":1,"time_sunshine60":95,"transit_count_sunshine60":2}},{"type":"Feature","geometry":{"type":"Point","coordinates":[139.330694,35.630733]},"properties":{"name":"八王子みなみ野","time_nakanoshima":62,"transit_count_nakanoshima":1,"time_sunshine60":83,"transit_count_sunshine60":2}},{"type":"Feature","geometry":{"type":"Point","coordinates":[139.545837,35.751447]},"properties":{"name":"ひばりヶ丘（東京都）","time_nakanoshima":62,"transit_count_nakanoshima":2,"time_sunshine60":40,"transit_count_sunshine60":0}},{"type":"Feature","geometry":{"type":"Point","coordinates":[139.673031,35.500312]},"properties":{"name":"花月総持寺","time_nakanoshima":62,"transit_count_nakanoshima":1,"time_sunshine60":72,"transit_count_sunshine60":3}},{"type":"Feature","geometry":{"type":"Point","coordinates":[139.281698,35.641675]},"properties":{"name":"高尾（東京都）","time_nakanoshima":62,"transit_count_nakanoshima":1,"time_sunshine60":77,"transit_count_sunshine60":1}},{"type":"Feature","geometry":{"type":"Point","coordinates":[139.516793,35.526028]},"properties":{"name":"十日市場（神奈川県）","time_nakanoshima":62,"transit_count_nakanoshima":2,"time_sunshine60":78,"transit_count_sunshine60":1}},{"type":"Feature","geometry":{"type":"Point","coordinates":[139.463595,35.73778]},"properties":{"name":"小川（東京都）","time_nakanoshima":62,"transit_count_nakanoshima":3,"time_sunshine60":56,"transit_count_sunshine60":1}},{"type":"Feature","geometry":{"type":"Point","coordinates":[139.710944,35.729693]},"properties":{"name":"池袋","time_nakanoshima":62,"transit_count_nakanoshima":2,"time_sunshine60":9,"transit_count_sunshine60":0}},{"type":"Feature","geometry":{"type":"Point","coordinates":[139.658274,35.697928]},"properties":{"name":"東高円寺","time_nakanoshima":62,"transit_count_nakanoshima":2,"time_sunshine60":35,"transit_count_sunshine60":1}},{"type":"Feature","geometry":{"type":"Point","coordinates":[139.600456,35.447289]},"properties":{"name":"保土ヶ谷","time_nakanoshima":62,"transit_count_nakanoshima":1,"time_sunshine60":70,"transit_count_sunshine60":0}},{"type":"Feature","geometry":{"type":"Point","coordinates":[139.612807,35.519241]},"properties":{"name":"北新横浜","time_nakanoshima":62,"transit_count_nakanoshima":2,"time_sunshine60":76,"transit_count_sunshine60":2}},{"type":"Feature","geometry":{"type":"Point","coordinates":[139.386802,35.572964]},"properties":{"name":"矢部","time_nakanoshima":62,"transit_count_nakanoshima":2,"time_sunshine60":86,"transit_count_sunshine60":2}},{"type":"Feature","geometry":{"type":"Point","coordinates":[139.725294,35.699483]},"properties":{"name":"牛込柳町","time_nakanoshima":62,"transit_count_nakanoshima":2,"time_sunshine60":30,"transit_count_sunshine60":1}},{"type":"Feature","geometry":{"type":"Point","coordinates":[139.737075,35.655186]},"properties":{"name":"麻布十番","time_nakanoshima":62,"transit_count_nakanoshima":1,"time_sunshine60":35,"transit_count_sunshine60":1}},{"type":"Feature","geometry":{"type":"Point","coordinates":[139.636736,35.450051]},"properties":{"name":"馬車道","time_nakanoshima":62,"transit_count_nakanoshima":1,"time_sunshine60":67,"transit_count_sunshine60":1}},{"type":"Feature","geometry":{"type":"Point","coordinates":[139.589197,35.692011]},"properties":{"name":"三鷹台","time_nakanoshima":63,"transit_count_nakanoshima":1,"time_sunshine60":53,"transit_count_sunshine60":2}},{"type":"Feature","geometry":{"type":"Point","coordinates":[139.636303,35.7049]},"properties":{"name":"阿佐ヶ谷","time_nakanoshima":63,"transit_count_nakanoshima":2,"time_sunshine60":34,"transit_count_sunshine60":1}},{"type":"Feature","geometry":{"type":"Point","coordinates":[139.685805,35.57947]},"properties":{"name":"久が原","time_nakanoshima":63,"transit_count_nakanoshima":2,"time_sunshine60":56,"transit_count_sunshine60":1}},{"type":"Feature","geometry":{"type":"Point","coordinates":[139.377877,35.443036]},"properties":{"name":"厚木","time_nakanoshima":63,"transit_count_nakanoshima":2,"time_sunshine60":87,"transit_count_sunshine60":2}},{"type":"Feature","geometry":{"type":"Point","coordinates":[139.67567,35.500757]},"properties":{"name":"国道","time_nakanoshima":63,"transit_count_nakanoshima":2,"time_sunshine60":72,"transit_count_sunshine60":2}},{"type":"Feature","geometry":{"type":"Point","coordinates":[139.747662,35.534727]},"properties":{"name":"小島新田","time_nakanoshima":63,"transit_count_nakanoshima":1,"time_sunshine60":73,"transit_count_sunshine60":3}},{"type":"Feature","geometry":{"type":"Point","coordinates":[139.466493,35.396569]},"properties":{"name":"湘南台","time_nakanoshima":63,"transit_count_nakanoshima":1,"time_sunshine60":83,"transit_count_sunshine60":1}},{"type":"Feature","geometry":{"type":"Point","coordinates":[139.683995,35.689625]},"properties":{"name":"西新宿五丁目","time_nakanoshima":63,"transit_count_nakanoshima":2,"time_sunshine60":37,"transit_count_sunshine60":1}},{"type":"Feature","geometry":{"type":"Point","coordinates":[139.728161,35.619912]},"properties":{"name":"大崎","time_nakanoshima":63,"transit_count_nakanoshima":2,"time_sunshine60":37,"transit_count_sunshine60":0}},{"type":"Feature","geometry":{"type":"Point","coordinates":[139.764863,35.68675]},"properties":{"name":"大手町（東京都）","time_nakanoshima":63,"transit_count_nakanoshima":1,"time_sunshine60":25,"transit_count_sunshine60":0}},{"type":"Feature","geometry":{"type":"Point","coordinates":[139.702914,35.571888]},"properties":{"name":"池上","time_nakanoshima":63,"transit_count_nakanoshima":2,"time_sunshine60":59,"transit_count_sunshine60":1}},{"type":"Feature","geometry":{"type":"Point","coordinates":[139.635035,35.477564]},"properties":{"name":"京急東神奈川","time_nakanoshima":63,"transit_count_nakanoshima":1,"time_sunshine60":72,"transit_count_sunshine60":1}},{"type":"Feature","geometry":{"type":"Point","coordinates":[139.728163,35.566806]},"properties":{"name":"梅屋敷（東京都）","time_nakanoshima":63,"transit_count_nakanoshima":1,"time_sunshine60":63,"transit_count_sunshine60":3}},{"type":"Feature","geometry":{"type":"Point","coordinates":[139.626528,35.461644]},"properties":{"name":"新高島","time_nakanoshima":63,"transit_count_nakanoshima":2,"time_sunshine60":71,"transit_count_sunshine60":1}},{"type":"Feature","geometry":{"type":"Point","coordinates":[139.642147,35.447087]},"properties":{"name":"日本大通り","time_nakanoshima":63,"transit_count_nakanoshima":1,"time_sunshine60":68,"transit_count_sunshine60":1}},{"type":"Feature","geometry":{"type":"Point","coordinates":[139.561603,35.536642]},"properties":{"name":"都筑ふれあいの丘","time_nakanoshima":63,"transit_count_nakanoshima":3,"time_sunshine60":71,"transit_count_sunshine60":2}},{"type":"Feature","geometry":{"type":"Point","coordinates":[139.583086,35.697232]},"properties":{"name":"井の頭公園","time_nakanoshima":64,"transit_count_nakanoshima":1,"time_sunshine60":52,"transit_count_sunshine60":2}},{"type":"Feature","geometry":{"type":"Point","coordinates":[139.341081,35.639593]},"properties":{"name":"片倉","time_nakanoshima":64,"transit_count_nakanoshima":1,"time_sunshine60":81,"transit_count_sunshine60":2}},{"type":"Feature","geometry":{"type":"Point","coordinates":[139.620444,35.704511]},"properties":{"name":"荻窪","time_nakanoshima":64,"transit_count_nakanoshima":2,"time_sunshine60":36,"transit_count_sunshine60":1}},{"type":"Feature","geometry":{"type":"Point","coordinates":[139.567345,35.511031]},"properties":{"name":"鴨居","time_nakanoshima":64,"transit_count_nakanoshima":2,"time_sunshine60":72,"transit_count_sunshine60":1}},{"type":"Feature","geometry":{"type":"Point","coordinates":[139.333745,35.734333]},"properties":{"name":"牛浜","time_nakanoshima":64,"transit_count_nakanoshima":1,"time_sunshine60":84,"transit_count_sunshine60":2}},{"type":"Feature","geometry":{"type":"Point","coordinates":[139.293779,35.640675]},"properties":{"name":"狭間","time_nakanoshima":64,"transit_count_nakanoshima":1,"time_sunshine60":90,"transit_count_sunshine60":2}},{"type":"Feature","geometry":{"type":"Point","coordinates":[139.763166,35.672949]},"properties":{"name":"銀座","time_nakanoshima":64,"transit_count_nakanoshima":2,"time_sunshine60":29,"transit_count_sunshine60":0}},{"type":"Feature","geometry":{"type":"Point","coordinates":[139.737434,35.684793]},"properties":{"name":"麹町","time_nakanoshima":64,"transit_count_nakanoshima":2,"time_sunshine60":20,"transit_count_sunshine60":0}},{"type":"Feature","geometry":{"type":"Point","coordinates":[139.752072,35.677433]},"properties":{"name":"桜田門","time_nakanoshima":64,"transit_count_nakanoshima":2,"time_sunshine60":24,"transit_count_sunshine60":0}},{"type":"Feature","geometry":{"type":"Point","coordinates":[139.74879,35.648376]},"properties":{"name":"三田（東京都）","time_nakanoshima":64,"transit_count_nakanoshima":1,"time_sunshine60":37,"transit_count_sunshine60":1}},{"type":"Feature","geometry":{"type":"Point","coordinates":[139.575165,35.822134]},"properties":{"name":"志木","time_nakanoshima":64,"transit_count_nakanoshima":2,"time_sunshine60":36,"transit_count_sunshine60":0}},{"type":"Feature","geometry":{"type":"Point","coordinates":[139.648275,35.697761]},"properties":{"name":"新高円寺","time_nakanoshima":64,"transit_count_nakanoshima":2,"time_sunshine60":37,"transit_count_sunshine60":1}},{"type":"Feature","geometry":{"type":"Point","coordinates":[139.456232,35.78883]},"properties":{"name":"西所沢","time_nakanoshima":64,"transit_count_nakanoshima":2,"time_sunshine60":51,"transit_count_sunshine60":0}},{"type":"Feature","geometry":{"type":"Point","coordinates":[139.691499,35.572972]},"properties":{"name":"千鳥町","time_nakanoshima":64,"transit_count_nakanoshima":2,"time_sunshine60":57,"transit_count_sunshine60":1}},{"type":"Feature","geometry":{"type":"Point","coordinates":[139.732078,35.572583]},"properties":{"name":"大森町","time_nakanoshima":64,"transit_count_nakanoshima":1,"time_sunshine60":64,"transit_count_sunshine60":3}},{"type":"Feature","geometry":{"type":"Point","coordinates":[139.7281,35.731787]},"properties":{"name":"大塚（東京都）","time_nakanoshima":64,"transit_count_nakanoshima":2,"time_sunshine60":15,"transit_count_sunshine60":0}},{"type":"Feature","geometry":{"type":"Point","coordinates":[139.68103,35.497147]},"properties":{"name":"鶴見小野","time_nakanoshima":64,"transit_count_nakanoshima":2,"time_sunshine60":73,"transit_count_sunshine60":2}},{"type":"Feature","geometry":{"type":"Point","coordinates":[139.76554,35.681646]},"properties":{"name":"東京","time_nakanoshima":64,"transit_count_nakanoshima":1,"time_sunshine60":26,"transit_count_sunshine60":0}},{"type":"Feature","geometry":{"type":"Point","coordinates":[139.758945,35.674311]},"properties":{"name":"日比谷","time_nakanoshima":64,"transit_count_nakanoshima":2,"time_sunshine60":28,"transit_count_sunshine60":0}},{"type":"Feature","geometry":{"type":"Point","coordinates":[139.64763,35.845634]},"properties":{"name":"武蔵浦和","time_nakanoshima":64,"transit_count_nakanoshima":1,"time_sunshine60":37,"transit_count_sunshine60":0}},{"type":"Feature","geometry":{"type":"Point","coordinates":[139.735768,35.700875]},"properties":{"name":"牛込神楽坂","time_nakanoshima":64,"transit_count_nakanoshima":2,"time_sunshine60":28,"transit_count_sunshine60":1}},{"type":"Feature","geometry":{"type":"Point","coordinates":[139.738849,35.66484]},"properties":{"name":"六本木一丁目","time_nakanoshima":64,"transit_count_nakanoshima":1,"time_sunshine60":33,"transit_count_sunshine60":1}},{"type":"Feature","geometry":{"type":"Point","coordinates":[139.740678,35.635626]},"properties":{"name":"高輪ゲートウェイ","time_nakanoshima":64,"transit_count_nakanoshima":1,"time_sunshine60":42,"transit_count_sunshine60":0}},{"type":"Feature","geometry":{"type":"Point","coordinates":[139.743599,35.700151]},"properties":{"name":"飯田橋","time_nakanoshima":65,"transit_count_nakanoshima":1,"time_sunshine60":16,"transit_count_sunshine60":0}},{"type":"Feature","geometry":{"type":"Point","coordinates":[139.313787,35.396231]},"properties":{"name":"伊勢原","time_nakanoshima":65,"transit_count_nakanoshima":1,"time_sunshine60":89,"transit_count_sunshine60":1}},{"type":"Feature","geometry":{"type":"Point","coordinates":[139.716161,35.614328]},"properties":{"name":"戸越","time_nakanoshima":65,"transit_count_nakanoshima":2,"time_sunshine60":45,"transit_count_sunshine60":1}},{"type":"Feature","geometry":{"type":"Point","coordinates":[139.763774,35.699856]},"properties":{"name":"御茶ノ水","time_nakanoshima":65,"transit_count_nakanoshima":2,"time_sunshine60":21,"transit_count_sunshine60":0}},{"type":"Feature","geometry":{"type":"Point","coordinates":[139.269782,35.632481]},"properties":{"name":"高尾山口","time_nakanoshima":65,"transit_count_nakanoshima":1,"time_sunshine60":83,"transit_count_sunshine60":1}},{"type":"Feature","geometry":{"type":"Point","coordinates":[139.465606,35.450479]},"properties":{"name":"桜ヶ丘","time_nakanoshima":65,"transit_count_nakanoshima":2,"time_sunshine60":88,"transit_count_sunshine60":2}},{"type":"Feature","geometry":{"type":"Point","coordinates":[139.630957,35.451007]},"properties":{"name":"桜木町","time_nakanoshima":65,"transit_count_nakanoshima":1,"time_sunshine60":74,"transit_count_sunshine60":1}},{"type":"Feature","geometry":{"type":"Point","coordinates":[139.773372,35.684855]},"properties":{"name":"三越前","time_nakanoshima":65,"transit_count_nakanoshima":1,"time_sunshine60":34,"transit_count_sunshine60":1}},{"type":"Feature","geometry":{"type":"Point","coordinates":[139.644922,35.484508]},"properties":{"name":"子安","time_nakanoshima":65,"transit_count_nakanoshima":2,"time_sunshine60":74,"transit_count_sunshine60":2}},{"type":"Feature","geometry":{"type":"Point","coordinates":[139.749712,35.653463]},"properties":{"name":"芝公園","time_nakanoshima":65,"transit_count_nakanoshima":1,"time_sunshine60":36,"transit_count_sunshine60":1}},{"type":"Feature","geometry":{"type":"Point","coordinates":[139.667364,35.49548]},"properties":{"name":"生麦","time_nakanoshima":65,"transit_count_nakanoshima":1,"time_sunshine60":75,"transit_count_sunshine60":3}},{"type":"Feature","geometry":{"type":"Point","coordinates":[139.757432,35.69046]},"properties":{"name":"竹橋","time_nakanoshima":65,"transit_count_nakanoshima":2,"time_sunshine60":28,"transit_count_sunshine60":1}},{"type":"Feature","geometry":{"type":"Point","coordinates":[139.53957,35.514641]},"properties":{"name":"中山（神奈川県）","time_nakanoshima":65,"transit_count_nakanoshima":2,"time_sunshine60":75,"transit_count_sunshine60":1}},{"type":"Feature","geometry":{"type":"Point","coordinates":[139.600191,35.796555]},"properties":{"name":"朝霞","time_nakanoshima":65,"transit_count_nakanoshima":2,"time_sunshine60":32,"transit_count_sunshine60":0}},{"type":"Feature","geometry":{"type":"Point","coordinates":[139.465843,35.76]},"properties":{"name":"東村山","time_nakanoshima":65,"transit_count_nakanoshima":3,"time_sunshine60":58,"transit_count_sunshine60":1}},{"type":"Feature","geometry":{"type":"Point","coordinates":[139.761599,35.680433]},"properties":{"name":"二重橋前","time_nakanoshima":65,"transit_count_nakanoshima":2,"time_sunshine60":34,"transit_count_sunshine60":0}},{"type":"Feature","geometry":{"type":"Point","coordinates":[139.711746,35.596497]},"properties":{"name":"馬込","time_nakanoshima":65,"transit_count_nakanoshima":2,"time_sunshine60":49,"transit_count_sunshine60":1}},{"type":"Feature","geometry":{"type":"Point","coordinates":[139.567946,35.748059]},"properties":{"name":"保谷","time_nakanoshima":65,"transit_count_nakanoshima":2,"time_sunshine60":37,"transit_count_sunshine60":0}},{"type":"Feature","geometry":{"type":"Point","coordinates":[139.743516,35.655044]},"properties":{"name":"赤羽橋","time_nakanoshima":65,"transit_count_nakanoshima":2,"time_sunshine60":43,"transit_count_sunshine60":1}},{"type":"Feature","geometry":{"type":"Point","coordinates":[139.549256,35.528387]},"properties":{"name":"川和町","time_nakanoshima":65,"transit_count_nakanoshima":3,"time_sunshine60":73,"transit_count_sunshine60":2}},{"type":"Feature","geometry":{"type":"Point","coordinates":[139.709086,35.708049]},"properties":{"name":"西早稲田","time_nakanoshima":65,"transit_count_nakanoshima":2,"time_sunshine60":21,"transit_count_sunshine60":1}},{"type":"Feature","geometry":{"type":"Point","coordinates":[139.363082,35.557659]},"properties":{"name":"上溝","time_nakanoshima":66,"transit_count_nakanoshima":1,"time_sunshine60":99,"transit_count_sunshine60":2}},{"type":"Feature","geometry":{"type":"Point","coordinates":[139.782708,35.692071]},"properties":{"name":"馬喰横山","time_nakanoshima":66,"transit_count_nakanoshima":0,"time_sunshine60":32,"transit_count_sunshine60":1}},{"type":"Feature","geometry":{"type":"Point","coordinates":[139.770099,35.676823]},"properties":{"name":"京橋（東京都）","time_nakanoshima":66,"transit_count_nakanoshima":2,"time_sunshine60":36,"transit_count_sunshine60":1}},{"type":"Feature","geometry":{"type":"Point","coordinates":[139.437539,35.800828]},"properties":{"name":"小手指","time_nakanoshima":66,"transit_count_nakanoshima":2,"time_sunshine60":54,"transit_count_sunshine60":0}},{"type":"Feature","geometry":{"type":"Point","coordinates":[139.74499,35.662629]},"properties":{"name":"神谷町","time_nakanoshima":66,"transit_count_nakanoshima":2,"time_sunshine60":38,"transit_count_sunshine60":1}},{"type":"Feature","geometry":{"type":"Point","coordinates":[139.740729,35.733944]},"properties":{"name":"巣鴨","time_nakanoshima":66,"transit_count_nakanoshima":2,"time_sunshine60":17,"transit_count_sunshine60":0}},{"type":"Feature","geometry":{"type":"Point","coordinates":[139.729296,35.731507]},"properties":{"name":"大塚駅前","time_nakanoshima":66,"transit_count_nakanoshima":2,"time_sunshine60":17,"transit_count_sunshine60":0}},{"type":"Feature","geometry":{"type":"Point","coordinates":[139.747519,35.645743]},"properties":{"name":"田町（東京都）","time_nakanoshima":66,"transit_count_nakanoshima":1,"time_sunshine60":41,"transit_count_sunshine60":1}},{"type":"Feature","geometry":{"type":"Point","coordinates":[139.556516,35.429929]},"properties":{"name":"東戸塚","time_nakanoshima":66,"transit_count_nakanoshima":1,"time_sunshine60":74,"transit_count_sunshine60":0}},{"type":"Feature","geometry":{"type":"Point","coordinates":[139.635582,35.699456]},"properties":{"name":"南阿佐ヶ谷","time_nakanoshima":66,"transit_count_nakanoshima":2,"time_sunshine60":39,"transit_count_sunshine60":1}},{"type":"Feature","geometry":{"type":"Point","coordinates":[139.719211,35.744925]},"properties":{"name":"板橋","time_nakanoshima":66,"transit_count_nakanoshima":2,"time_sunshine60":18,"transit_count_sunshine60":0}},{"type":"Feature","geometry":{"type":"Point","coordinates":[139.327634,35.742665]},"properties":{"name":"福生","time_nakanoshima":66,"transit_count_nakanoshima":1,"time_sunshine60":86,"transit_count_sunshine60":2}},{"type":"Feature","geometry":{"type":"Point","coordinates":[139.734939,35.578806]},"properties":{"name":"平和島","time_nakanoshima":66,"transit_count_nakanoshima":1,"time_sunshine60":55,"transit_count_sunshine60":2}},{"type":"Feature","geometry":{"type":"Point","coordinates":[139.689501,35.495674]},"properties":{"name":"弁天橋","time_nakanoshima":66,"transit_count_nakanoshima":2,"time_sunshine60":75,"transit_count_sunshine60":2}},{"type":"Feature","geometry":{"type":"Point","coordinates":[139.76181,35.676031]},"properties":{"name":"有楽町","time_nakanoshima":66,"transit_count_nakanoshima":2,"time_sunshine60":26,"transit_count_sunshine60":0}},{"type":"Feature","geometry":{"type":"Point","coordinates":[139.749715,35.609425]},"properties":{"name":"品川シーサイド","time_nakanoshima":66,"transit_count_nakanoshima":2,"time_sunshine60":44,"transit_count_sunshine60":0}},{"type":"Feature","geometry":{"type":"Point","coordinates":[139.74778,35.667486]},"properties":{"name":"虎ノ門ヒルズ","time_nakanoshima":66,"transit_count_nakanoshima":2,"time_sunshine60":36,"transit_count_sunshine60":1}},{"type":"Feature","geometry":{"type":"Point","coordinates":[139.754333,35.702061]},"properties":{"name":"水道橋","time_nakanoshima":67,"transit_count_nakanoshima":1,"time_sunshine60":27,"transit_count_sunshine60":1}},{"type":"Feature","geometry":{"type":"Point","coordinates":[139.695353,35.715705]},"properties":{"name":"下落合","time_nakanoshima":67,"transit_count_nakanoshima":3,"time_sunshine60":26,"transit_count_sunshine60":1}},{"type":"Feature","geometry":{"type":"Point","coordinates":[139.636052,35.444061]},"properties":{"name":"関内","time_nakanoshima":67,"transit_count_nakanoshima":1,"time_sunshine60":76,"transit_count_sunshine60":1}},{"type":"Feature","geometry":{"type":"Point","coordinates":[139.616647,35.495561]},"properties":{"name":"岸根公園","time_nakanoshima":67,"transit_count_nakanoshima":2,"time_sunshine60":77,"transit_count_sunshine60":2}},{"type":"Feature","geometry":{"type":"Point","coordinates":[139.766654,35.674572]},